[
  {
    "id": "C0",
    "行政区": "离岛区",
    "Location": [
      114.04598,
      22.307535
    ],
    "Name": "香港迪士尼乐园",
    "Address": "香港大屿山香港迪士尼乐园度假区",
    "District": "大屿山",
    "RoadInfo": "",
    "Poi": "香港迪士尼乐园度假区",
    "RoomInfo": ""
  },
  {
    "id": "C1",
    "行政区": "北区",
    "Location": [
      114.293768,
      22.516874
    ],
    "Name": "鬼手岩",
    "Address": "香港印洲塘海岸公园",
    "District": "",
    "RoadInfo": "",
    "Poi": "印洲塘海岸公园",
    "RoomInfo": ""
  },
  {
    "id": "C2",
    "行政区": "U",
    "Location": [
      114.163825,
      22.276284
    ],
    "Name": "Tai Tong",
    "Address": "香港Tai Tong Jiaoye Gongyuan, Hong Kong",
    "District": "",
    "RoadInfo": "",
    "Poi": "",
    "RoomInfo": ""
  },
  {
    "id": "C3",
    "行政区": "荃湾区",
    "Location": [
      114.121079,
      22.368307
    ],
    "Name": "海滨长廊",
    "Address": "香港特别行政区荃湾区",
    "District": "荃湾区",
    "RoadInfo": "",
    "Poi": "",
    "RoomInfo": ""
  },
  {
    "id": "C4",
    "行政区": "沙田区",
    "Location": [
      114.252526,
      22.408969
    ],
    "Name": "马鞍山郊野公园",
    "Address": "香港马鞍山",
    "District": "马鞍山",
    "RoadInfo": "",
    "Poi": "",
    "RoomInfo": ""
  },
  {
    "id": "C5",
    "行政区": "大埔区",
    "Location": [
      114.127685,
      22.435814
    ],
    "Name": "嘉道理农场暨植物园",
    "Address": "香港新界大埔林锦公路",
    "District": "大埔",
    "RoadInfo": "林锦公路",
    "Poi": "",
    "RoomInfo": ""
  },
  {
    "id": "C6",
    "行政区": "沙田区",
    "Location": [
      114.20723,
      22.391221
    ],
    "Name": "沙田奥运马术比赛场",
    "Address": "香港新界沙田源禾路25号香港体育学院内",
    "District": "沙田",
    "RoadInfo": "源禾路25号",
    "Poi": "香港体育学院",
    "RoomInfo": ""
  },
  {
    "id": "C7",
    "行政区": "西贡区",
    "Location": [
      114.264645,
      22.314213
    ],
    "Name": "西湾山",
    "Address": "香港西贡",
    "District": "西贡",
    "RoadInfo": "",
    "Poi": "",
    "RoomInfo": ""
  },
  {
    "id": "C8",
    "行政区": "中西区",
    "Location": [
      114.164559,
      22.275364
    ],
    "Name": "山顶缆车历史珍藏馆",
    "Address": "香港中環花園道33號",
    "District": "中環",
    "RoadInfo": "花園道33號",
    "Poi": "",
    "RoomInfo": ""
  },
  {
    "id": "C9",
    "行政区": "屯门区",
    "Location": [
      113.97254,
      22.388593
    ],
    "Name": "青山禅院",
    "Address": "香港屯门青云路",
    "District": "屯门",
    "RoadInfo": "青云路",
    "Poi": "",
    "RoomInfo": ""
  },
  {
    "id": "C10",
    "行政区": "离岛区",
    "Location": [
      114.021333,
      22.305564
    ],
    "Name": "愉景北商场",
    "Address": "香港愉景湾海澄湖畔路92及96号",
    "District": "",
    "RoadInfo": "海澄湖畔路92及96号",
    "Poi": "愉景湾",
    "RoomInfo": ""
  },
  {
    "id": "C11",
    "行政区": "葵青区",
    "Location": [
      114.129235,
      22.356158
    ],
    "Name": "Kwok Shui Road Park",
    "Address": "香港葵涌国瑞路",
    "District": "葵涌",
    "RoadInfo": "国瑞路",
    "Poi": "",
    "RoomInfo": ""
  },
  {
    "id": "C12",
    "行政区": "U",
    "Location": [
      114.163825,
      22.276284
    ],
    "Name": "The Popsy Room",
    "Address": "香港上环拉斯卡街上段30号",
    "District": "上环",
    "RoadInfo": "拉斯卡街上段30号",
    "Poi": "",
    "RoomInfo": ""
  },
  {
    "id": "C13",
    "行政区": "西贡区",
    "Location": [
      114.320825,
      22.354398
    ],
    "Name": "赛马会滘西洲公众高尔夫球场",
    "Address": "香港特别行政区西贡区新界西贡滘西洲北部",
    "District": "西贡区西贡",
    "RoadInfo": "",
    "Poi": "滘西洲",
    "RoomInfo": ""
  },
  {
    "id": "C14",
    "行政区": "荃湾区",
    "Location": [
      114.124305,
      22.365235
    ],
    "Name": "Wings Flight Academy",
    "Address": "香港 荃湾沙咀道364至366号 万象工业大厦1905室",
    "District": "荃湾",
    "RoadInfo": "沙咀道364至366号",
    "Poi": " 万象工业大厦",
    "RoomInfo": "1905室"
  },
  {
    "id": "C15",
    "行政区": "荃湾区",
    "Location": [
      114.111048,
      22.402058
    ],
    "Name": "Mirror Pool Waterfalls",
    "Address": "香港乌蛟腾船湾郊野公园",
    "District": "",
    "RoadInfo": "",
    "Poi": "乌蛟腾船湾郊野公园",
    "RoomInfo": ""
  },
  {
    "id": "C16",
    "行政区": "U",
    "Location": [
      114.163825,
      22.276284
    ],
    "Name": "Brides Pool Waterfalls",
    "Address": "香港新娘池路",
    "District": "",
    "RoadInfo": "新娘池路",
    "Poi": "",
    "RoomInfo": ""
  },
  {
    "id": "C17",
    "行政区": "离岛区",
    "Location": [
      114.033714,
      22.205627
    ],
    "Name": "Pak Tso Wan Beach",
    "Address": "香港 长洲亲子径 长洲",
    "District": "",
    "RoadInfo": "",
    "Poi": " 长洲亲子径 长洲",
    "RoomInfo": ""
  },
  {
    "id": "C18",
    "行政区": "离岛区",
    "Location": [
      114.043621,
      22.281517
    ],
    "Name": "Moral Sin Tong",
    "Address": "香港坪洲新嘉路",
    "District": "坪洲",
    "RoadInfo": "新嘉路",
    "Poi": "",
    "RoomInfo": ""
  },
  {
    "id": "C19",
    "行政区": "U",
    "Location": [
      114.163825,
      22.276284
    ],
    "Name": "Silver Mine Cave",
    "Address": "香港Mui Wo",
    "District": "",
    "RoadInfo": "",
    "Poi": "",
    "RoomInfo": ""
  },
  {
    "id": "C20",
    "行政区": "元朗区",
    "Location": [
      114.02448,
      22.437746
    ],
    "Name": "元朗公园",
    "Address": "香港元朗公园北路1号",
    "District": "元朗",
    "RoadInfo": "公园北路1号",
    "Poi": "",
    "RoomInfo": ""
  },
  {
    "id": "C21",
    "行政区": "深水埗区",
    "Location": [
      114.161062,
      22.334809
    ],
    "Name": "元州邨",
    "Address": "香港深水埗区元州街303号",
    "District": "深水埗区",
    "RoadInfo": "元州街303号",
    "Poi": "",
    "RoomInfo": ""
  },
  {
    "id": "C22",
    "行政区": "中西区",
    "Location": [
      114.16029,
      22.280459
    ],
    "Name": "白石画廊",
    "Address": "香港皇后大道中80号H Queen&#39;s 8楼",
    "District": "",
    "RoadInfo": "皇后大道中80号",
    "Poi": "H Qu",
    "RoomInfo": "8楼"
  },
  {
    "id": "C23",
    "行政区": "九龙城区",
    "Location": [
      114.195844,
      22.312496
    ],
    "Name": "海心公园",
    "Address": "香港土瓜湾旭日街",
    "District": "土瓜湾",
    "RoadInfo": "旭日街",
    "Poi": "",
    "RoomInfo": ""
  },
  {
    "id": "C24",
    "行政区": "荃湾区",
    "Location": [
      114.117876,
      22.364259
    ],
    "Name": "荃灣公園寵物花園",
    "Address": "香港荃灣永順街59號",
    "District": "荃灣",
    "RoadInfo": "永順街59號",
    "Poi": "",
    "RoomInfo": ""
  },
  {
    "id": "C25",
    "行政区": "观塘区",
    "Location": [
      114.214893,
      22.327732
    ],
    "Name": "牛头角公园",
    "Address": "香港观塘道199号",
    "District": "",
    "RoadInfo": "观塘道199号",
    "Poi": "",
    "RoomInfo": ""
  },
  {
    "id": "C26",
    "行政区": "油尖旺区",
    "Location": [
      114.168799,
      22.317055
    ],
    "Name": "乐群街公园",
    "Address": "香港大角咀旺角乐群街25号",
    "District": "旺角",
    "RoadInfo": "乐群街25号",
    "Poi": "",
    "RoomInfo": ""
  },
  {
    "id": "C27",
    "行政区": "黄大仙区",
    "Location": [
      114.210753,
      22.336956
    ],
    "Name": "斧山公园",
    "Address": "香港上元岭凤德道60号",
    "District": "上元岭",
    "RoadInfo": "凤德道60号",
    "Poi": "",
    "RoomInfo": ""
  },
  {
    "id": "C28",
    "行政区": "深水埗区",
    "Location": [
      114.174737,
      22.333403
    ],
    "Name": "石硤尾公園",
    "Address": "香港深水埗南昌街270號",
    "District": "",
    "RoadInfo": "南昌街270號",
    "Poi": "",
    "RoomInfo": ""
  },
  {
    "id": "C29",
    "行政区": "湾仔区",
    "Location": [
      114.189096,
      22.266978
    ],
    "Name": "黄泥涌道新月花园",
    "Address": "香港黄泥涌道(近山光道)",
    "District": "",
    "RoadInfo": "黄泥涌道山光道",
    "Poi": "",
    "RoomInfo": ""
  },
  {
    "id": "C30",
    "行政区": "湾仔区",
    "Location": [
      114.188993,
      22.270581
    ],
    "Name": "维多利亚城界碑 - 跑马地",
    "Address": "香港跑馬地黃泥涌道駿馬閣",
    "District": "跑馬地",
    "RoadInfo": "黃泥涌道",
    "Poi": "駿馬閣",
    "RoomInfo": ""
  },
  {
    "id": "C31",
    "行政区": "东区",
    "Location": [
      114.200352,
      22.287524
    ],
    "Name": "皇都戏院大厦",
    "Address": "香港北角英皇道279-291號皇都戲院大廈",
    "District": "北角",
    "RoadInfo": "英皇道279-291號",
    "Poi": "皇都戲院大廈",
    "RoomInfo": ""
  },
  {
    "id": "C32",
    "行政区": "U",
    "Location": [
      114.163825,
      22.276284
    ],
    "Name": "黑角头碉堡",
    "Address": "香港连臣角道123号",
    "District": "",
    "RoadInfo": "连臣角道123号",
    "Poi": "",
    "RoomInfo": ""
  },
  {
    "id": "C33",
    "行政区": "南区",
    "Location": [
      114.158845,
      22.246005
    ],
    "Name": "香港仔广场",
    "Address": "香港南宁街6-12号",
    "District": "",
    "RoadInfo": "南宁街6-12号",
    "Poi": "",
    "RoomInfo": ""
  },
  {
    "id": "C34",
    "行政区": "深水埗区",
    "Location": [
      114.169453,
      22.327886
    ],
    "Name": "福荣街",
    "Address": "香港福榮街",
    "District": "",
    "RoadInfo": "福榮街",
    "Poi": "",
    "RoomInfo": ""
  },
  {
    "id": "C35",
    "行政区": "湾仔区",
    "Location": [
      114.18148,
      22.273539
    ],
    "Name": "THE VINE",
    "Address": "香港灣仔巴路士街29號",
    "District": "灣仔",
    "RoadInfo": "巴路士街29號",
    "Poi": "",
    "RoomInfo": ""
  },
  {
    "id": "C36",
    "行政区": "U",
    "Location": [
      114.163825,
      22.276284
    ],
    "Name": "松柏塱村",
    "Address": "香港上水青山公路古洞段",
    "District": "上水",
    "RoadInfo": "青山公路",
    "Poi": "古洞段",
    "RoomInfo": ""
  },
  {
    "id": "C37",
    "行政区": "湾仔区",
    "Location": [
      114.182915,
      22.276389
    ],
    "Name": "Yellow House",
    "Address": "香港湾仔兴运街2-8号",
    "District": "湾仔",
    "RoadInfo": "兴运街2-8号",
    "Poi": "",
    "RoomInfo": ""
  },
  {
    "id": "C38",
    "行政区": "湾仔区",
    "Location": [
      114.176012,
      22.273448
    ],
    "Name": "No 18 Ship Street",
    "Address": "香港湾仔船街18号",
    "District": "",
    "RoadInfo": "湾仔船街18号",
    "Poi": "",
    "RoomInfo": ""
  },
  {
    "id": "C39",
    "行政区": "深水埗区",
    "Location": [
      114.171696,
      22.328005
    ],
    "Name": "圣方济各堂",
    "Address": "香港塘尾石硤尾街58號",
    "District": "塘尾",
    "RoadInfo": "石硤尾街58號",
    "Poi": "",
    "RoomInfo": ""
  },
  {
    "id": "C40",
    "行政区": "元朗区",
    "Location": [
      114.0264,
      22.417676
    ],
    "Name": "Governor's Walk Trail",
    "Address": "香港太平山花园",
    "District": "",
    "RoadInfo": "",
    "Poi": "太平山花园",
    "RoomInfo": ""
  },
  {
    "id": "C41",
    "行政区": "中西区",
    "Location": [
      114.155011,
      22.267498
    ],
    "Name": "The Mountain Lodge Guard House",
    "Address": "香港 山顶柯士甸山道",
    "District": "",
    "RoadInfo": "柯士甸山道",
    "Poi": " 山顶",
    "RoomInfo": ""
  },
  {
    "id": "C42",
    "行政区": "U",
    "Location": [
      114.163825,
      22.276284
    ],
    "Name": "Seven Sisters Temple",
    "Address": "香港彭蕾路",
    "District": "",
    "RoadInfo": "彭蕾路",
    "Poi": "",
    "RoomInfo": ""
  },
  {
    "id": "C43",
    "行政区": "离岛区",
    "Location": [
      114.043501,
      22.282665
    ],
    "Name": "Stone Tablet",
    "Address": "香港 坪洲永安街天后庙外",
    "District": " 坪洲",
    "RoadInfo": "永安街",
    "Poi": "天后庙",
    "RoomInfo": ""
  },
  {
    "id": "C44",
    "行政区": "沙田区",
    "Location": [
      114.232862,
      22.422176
    ],
    "Name": "纷松 (马鞍山店)",
    "Address": "香港 雅涛居购物商场1楼",
    "District": "",
    "RoadInfo": "",
    "Poi": " 雅涛居购物商场",
    "RoomInfo": "1楼"
  },
  {
    "id": "C45",
    "行政区": "南区",
    "Location": [
      114.216929,
      22.216021
    ],
    "Name": "Che Pau Teng - Rhino Rock",
    "Address": "香港赤柱黄麻乐道",
    "District": "赤柱",
    "RoadInfo": "黄麻乐道",
    "Poi": "",
    "RoomInfo": ""
  },
  {
    "id": "C46",
    "行政区": "深水埗区",
    "Location": [
      114.152651,
      22.33361
    ],
    "Name": "Crossfire Arena Hong Kong",
    "Address": "香港荔枝角长顺街 15 号 D2 PLACE 2 号 306-308",
    "District": "荔枝角",
    "RoadInfo": "长顺街 15 号",
    "Poi": " D2 PLACE 2 号",
    "RoomInfo": " 306-308"
  },
  {
    "id": "C47",
    "行政区": "大埔区",
    "Location": [
      114.258704,
      22.427502
    ],
    "Name": "Art Lane",
    "Address": "香港Sai Yin Pun",
    "District": "",
    "RoadInfo": "",
    "Poi": "",
    "RoomInfo": ""
  },
  {
    "id": "C48",
    "行政区": "湾仔区",
    "Location": [
      114.173729,
      22.274486
    ],
    "Name": "Hug and Home",
    "Address": "香港 湾仔晏顿街一号 安定大厦12楼",
    "District": "",
    "RoadInfo": "晏顿街一号",
    "Poi": " 安定大厦",
    "RoomInfo": "12楼"
  },
  {
    "id": "C49",
    "行政区": "油尖旺区",
    "Location": [
      114.17355,
      22.303997
    ],
    "Name": "密室梯逃",
    "Address": "香港佐敦炮台街39B号地下",
    "District": "佐敦",
    "RoadInfo": "炮台街39B号",
    "Poi": "",
    "RoomInfo": ""
  },
  {
    "id": "C50",
    "行政区": "观塘区",
    "Location": [
      114.229711,
      22.308422
    ],
    "Name": "Resalaser",
    "Address": "香港巧明街119-121号年运工业大厦2楼CD",
    "District": "",
    "RoadInfo": "巧明街119-121号",
    "Poi": "年运工业大厦",
    "RoomInfo": "2楼"
  },
  {
    "id": "C51",
    "行政区": "U",
    "Location": [
      114.163825,
      22.276284
    ],
    "Name": "HK Free Walk",
    "Address": "香港, 中国",
    "District": "",
    "RoadInfo": "",
    "Poi": "",
    "RoomInfo": ""
  },
  {
    "id": "C52",
    "行政区": "葵青区",
    "Location": [
      114.105297,
      22.359724
    ],
    "Name": "青衣东北公园",
    "Address": "香港青衣担杆山路10号",
    "District": "青衣",
    "RoadInfo": "担杆山路10号",
    "Poi": "",
    "RoomInfo": ""
  },
  {
    "id": "C53",
    "行政区": "荃湾区",
    "Location": [
      114.064342,
      22.348773
    ],
    "Name": "东湾",
    "Address": "香港新界西荃湾区马湾",
    "District": "荃湾区",
    "RoadInfo": "",
    "Poi": "马湾",
    "RoomInfo": ""
  },
  {
    "id": "C54",
    "行政区": "元朗区",
    "Location": [
      114.012725,
      22.443573
    ],
    "Name": "屏山邓族文物馆",
    "Address": "香港屏山",
    "District": "屏山",
    "RoadInfo": "",
    "Poi": "",
    "RoomInfo": ""
  },
  {
    "id": "C55",
    "行政区": "沙田区",
    "Location": [
      114.21875,
      22.413177
    ],
    "Name": "大埔海",
    "Address": "香港沙田区马料水",
    "District": "沙田区",
    "RoadInfo": "",
    "Poi": "马料水",
    "RoomInfo": ""
  },
  {
    "id": "C56",
    "行政区": "大埔区",
    "Location": [
      114.432643,
      22.542619
    ],
    "Name": "Kang Lau Shek (Tung Ping Chau)",
    "Address": "香港 东平洲东南角",
    "District": "东平洲",
    "RoadInfo": "",
    "Poi": "东南角",
    "RoomInfo": ""
  },
  {
    "id": "C57",
    "行政区": "中西区",
    "Location": [
      114.162134,
      22.278993
    ],
    "Name": "布朗美术馆",
    "Address": "香港毕打街12号毕打行301室, 毕打街12号毕打街301室",
    "District": "",
    "RoadInfo": "毕打街12号毕打街12号毕打街301室",
    "Poi": "毕打行",
    "RoomInfo": "301室"
  },
  {
    "id": "C58",
    "行政区": "大埔区",
    "Location": [
      114.182038,
      22.448263
    ],
    "Name": "大埔海滨公园",
    "Address": "香港特别行政区大埔区大埔太和路与完善路交叉口东200米",
    "District": "大埔区大埔",
    "RoadInfo": "太和路完善路",
    "Poi": "",
    "RoomInfo": ""
  },
  {
    "id": "C59",
    "行政区": "离岛区",
    "Location": [
      113.94612,
      22.286408
    ],
    "Name": "香港蒲台群岛",
    "Address": "香港离岛区",
    "District": "离岛区",
    "RoadInfo": "",
    "Poi": "",
    "RoomInfo": ""
  },
  {
    "id": "C60",
    "行政区": "大埔区",
    "Location": [
      114.14679,
      22.453963
    ],
    "Name": "鲤鱼门天后庙",
    "Address": "香港鯉魚門天后廟",
    "District": "鯉魚門",
    "RoadInfo": "",
    "Poi": "天后廟",
    "RoomInfo": ""
  },
  {
    "id": "C61",
    "行政区": "中西区",
    "Location": [
      114.14393,
      22.271935
    ],
    "Name": "山顶夏力道和卢吉道环回步行径",
    "Address": "香港山頂盧吉道34號",
    "District": "山頂",
    "RoadInfo": "盧吉道34號",
    "Poi": "",
    "RoomInfo": ""
  },
  {
    "id": "C62",
    "行政区": "深水埗区",
    "Location": [
      114.170548,
      22.331997
    ],
    "Name": "赛马会创意艺术中心",
    "Address": "香港白田街30号",
    "District": "",
    "RoadInfo": "白田街30号",
    "Poi": "",
    "RoomInfo": ""
  },
  {
    "id": "C63",
    "行政区": "东区",
    "Location": [
      114.239782,
      22.279572
    ],
    "Name": "香港海防博物馆",
    "Address": "香港筲箕灣東喜道175號",
    "District": "筲箕灣",
    "RoadInfo": "東喜道175號",
    "Poi": "",
    "RoomInfo": ""
  },
  {
    "id": "C64",
    "行政区": "沙田区",
    "Location": [
      114.213083,
      22.412724
    ],
    "Name": "香港中文大学-牟路思怡图书馆",
    "Address": "香港马料水池旁路",
    "District": "",
    "RoadInfo": "池旁路",
    "Poi": "马料水",
    "RoomInfo": ""
  },
  {
    "id": "C65",
    "行政区": "湾仔区",
    "Location": [
      114.173859,
      22.27668
    ],
    "Name": "力宝中心",
    "Address": "香港金钟金钟道89号力宝中心2座",
    "District": "金钟",
    "RoadInfo": "金钟道89号",
    "Poi": "力宝中心",
    "RoomInfo": "2座"
  },
  {
    "id": "C66",
    "行政区": "中西区",
    "Location": [
      114.155699,
      22.282586
    ],
    "Name": "苏杭街彩虹路",
    "Address": "香港苏杭街（上环站A2出口）",
    "District": "",
    "RoadInfo": "苏杭街",
    "Poi": "上环站A2出口",
    "RoomInfo": ""
  },
  {
    "id": "C67",
    "行政区": "U",
    "Location": [
      114.163825,
      22.276284
    ],
    "Name": "汀九桥",
    "Address": "香港",
    "District": "",
    "RoadInfo": "",
    "Poi": "",
    "RoomInfo": ""
  },
  {
    "id": "C68",
    "行政区": "黄大仙区",
    "Location": [
      114.198279,
      22.339933
    ],
    "Name": "从心苑",
    "Address": "香港竹园道2号",
    "District": "",
    "RoadInfo": "竹园道2号",
    "Poi": "",
    "RoomInfo": ""
  },
  {
    "id": "C69",
    "行政区": "离岛区",
    "Location": [
      114.033714,
      22.205627
    ],
    "Name": "北社街及新兴街",
    "Address": "香港长洲北部",
    "District": "长洲",
    "RoadInfo": "",
    "Poi": "北部",
    "RoomInfo": ""
  },
  {
    "id": "C70",
    "行政区": "U",
    "Location": [
      114.163825,
      22.276284
    ],
    "Name": "滘西洲洪圣古庙",
    "Address": "香港",
    "District": "",
    "RoadInfo": "",
    "Poi": "",
    "RoomInfo": ""
  },
  {
    "id": "C71",
    "行政区": "沙田区",
    "Location": [
      114.242048,
      22.38074
    ],
    "Name": "大金钟",
    "Address": "香港马鞍山郊野公园昂坪观景台以北",
    "District": "",
    "RoadInfo": "",
    "Poi": "马鞍山郊野公园昂坪观景台",
    "RoomInfo": ""
  },
  {
    "id": "C72",
    "行政区": "U",
    "Location": [
      114.163825,
      22.276284
    ],
    "Name": "白泥",
    "Address": "香港白泥",
    "District": "",
    "RoadInfo": "",
    "Poi": "白泥",
    "RoomInfo": ""
  },
  {
    "id": "C73",
    "行政区": "荃湾区",
    "Location": [
      114.132236,
      22.377141
    ],
    "Name": "西方寺",
    "Address": "香港老圍老圍路",
    "District": "老圍",
    "RoadInfo": "老圍路",
    "Poi": "",
    "RoomInfo": ""
  },
  {
    "id": "C74",
    "行政区": "离岛区",
    "Location": [
      114.118342,
      22.222109
    ],
    "Name": "南丫岛观景台",
    "Address": "香港南丫島南丫島家樂徑",
    "District": "南丫島南丫島",
    "RoadInfo": "",
    "Poi": "家樂徑",
    "RoomInfo": ""
  },
  {
    "id": "C75",
    "行政区": "东区",
    "Location": [
      114.226425,
      22.279791
    ],
    "Name": "太安楼",
    "Address": "香港西灣河筲箕灣道57-87號太安樓",
    "District": "西灣河",
    "RoadInfo": "筲箕灣道57-87號",
    "Poi": "太安樓",
    "RoomInfo": ""
  },
  {
    "id": "C76",
    "行政区": "大埔区",
    "Location": [
      114.171743,
      22.445653
    ],
    "Name": "天后庙",
    "Address": "香港大埔",
    "District": "",
    "RoadInfo": "",
    "Poi": "大埔",
    "RoomInfo": ""
  },
  {
    "id": "C77",
    "行政区": "九龙城区",
    "Location": [
      114.180498,
      22.339012
    ],
    "Name": "笔架山",
    "Address": "香港狮子山笔架山",
    "District": "狮子山",
    "RoadInfo": "",
    "Poi": "笔架山",
    "RoomInfo": ""
  },
  {
    "id": "C78",
    "行政区": "中西区",
    "Location": [
      114.164004,
      22.277651
    ],
    "Name": "渣打银行大厦",
    "Address": "香港中环德辅道中4-4A号渣打银行大厦",
    "District": "中环",
    "RoadInfo": "德辅道中4-4A号",
    "Poi": "渣打银行大厦",
    "RoomInfo": ""
  },
  {
    "id": "C79",
    "行政区": "南区",
    "Location": [
      114.180872,
      22.243762
    ],
    "Name": "海洋奇观",
    "Address": "香港黃竹坑黃竹坑道一百八十號",
    "District": "黃竹坑",
    "RoadInfo": "黃竹坑道一百八十號",
    "Poi": "",
    "RoomInfo": ""
  },
  {
    "id": "C80",
    "行政区": "离岛区",
    "Location": [
      113.94402,
      22.279503
    ],
    "Name": "圣母神乐院",
    "Address": "香港Lantau Tai Shui Hang",
    "District": "",
    "RoadInfo": "",
    "Poi": "u Tai Shui Hang",
    "RoomInfo": ""
  },
  {
    "id": "C81",
    "行政区": "南区",
    "Location": [
      114.216822,
      22.215766
    ],
    "Name": "赤柱海滨长廊 硬地球场",
    "Address": "香港赤柱赤柱大街13號",
    "District": "赤柱",
    "RoadInfo": "赤柱大街13號",
    "Poi": "",
    "RoomInfo": ""
  },
  {
    "id": "C82",
    "行政区": "西贡区",
    "Location": [
      114.273724,
      22.314015
    ],
    "Name": "宝康公园",
    "Address": "香港將軍澳運隆路",
    "District": "將軍澳",
    "RoadInfo": "運隆路",
    "Poi": "",
    "RoomInfo": ""
  },
  {
    "id": "C83",
    "行政区": "南区",
    "Location": [
      114.218241,
      22.218708
    ],
    "Name": "赤柱正滩泳滩",
    "Address": "香港浅水湾赤柱滩道16号",
    "District": "浅水湾",
    "RoadInfo": "赤柱滩道16号",
    "Poi": "",
    "RoomInfo": ""
  },
  {
    "id": "C84",
    "行政区": "离岛区",
    "Location": [
      114.033714,
      22.205627
    ],
    "Name": "张保仔洞",
    "Address": "香港Family Walk, 长洲,",
    "District": "",
    "RoadInfo": "",
    "Poi": "amily Walk, 长洲",
    "RoomInfo": ""
  },
  {
    "id": "C85",
    "行政区": "西贡区",
    "Location": [
      114.291885,
      22.284075
    ],
    "Name": "飞鹅山观景台",
    "Address": "香港清水湾飞鹅山道",
    "District": "清水湾",
    "RoadInfo": "飞鹅山道",
    "Poi": "",
    "RoomInfo": ""
  },
  {
    "id": "C86",
    "行政区": "离岛区",
    "Location": [
      114.033714,
      22.205627
    ],
    "Name": "玉玺石",
    "Address": "香港长洲",
    "District": "",
    "RoadInfo": "",
    "Poi": "长洲",
    "RoomInfo": ""
  },
  {
    "id": "C87",
    "行政区": "北区",
    "Location": [
      114.264137,
      22.52412
    ],
    "Name": "荔枝窝自然步道",
    "Address": "香港船湾荔枝窝自然步道",
    "District": "船湾",
    "RoadInfo": "",
    "Poi": "荔枝窝自然步道",
    "RoomInfo": ""
  },
  {
    "id": "C88",
    "行政区": "油尖旺区",
    "Location": [
      114.18055,
      22.303968
    ],
    "Name": "众坊街",
    "Address": "香港油麻地眾坊街",
    "District": "油麻地",
    "RoadInfo": "眾坊街",
    "Poi": "",
    "RoomInfo": ""
  },
  {
    "id": "C89",
    "行政区": "离岛区",
    "Location": [
      114.00411,
      22.261957
    ],
    "Name": "下长沙泳滩",
    "Address": "香港特别行政区离岛区大屿山屿南道45号",
    "District": "离岛区大屿山",
    "RoadInfo": "屿南道45号",
    "Poi": "",
    "RoomInfo": ""
  },
  {
    "id": "C90",
    "行政区": "湾仔区",
    "Location": [
      114.186456,
      22.268636
    ],
    "Name": "南丫岛大风车",
    "Address": "香港南丫岛",
    "District": "南丫岛",
    "RoadInfo": "",
    "Poi": "",
    "RoomInfo": ""
  },
  {
    "id": "C91",
    "行政区": "西贡区",
    "Location": [
      114.399981,
      22.445617
    ],
    "Name": "黄茅洲岛",
    "Address": "香港西贡区黄茅洲",
    "District": "西贡区",
    "RoadInfo": "",
    "Poi": "黄茅洲",
    "RoomInfo": ""
  },
  {
    "id": "C92",
    "行政区": "油尖旺区",
    "Location": [
      114.179224,
      22.290564
    ],
    "Name": "热带雨林探险径",
    "Address": "香港海洋公园",
    "District": "",
    "RoadInfo": "",
    "Poi": "海洋公园",
    "RoomInfo": ""
  },
  {
    "id": "C93",
    "行政区": "元朗区",
    "Location": [
      114.066655,
      22.453799
    ],
    "Name": "鸡公岭",
    "Address": "香港元朗逢吉乡",
    "District": "元朗逢吉乡",
    "RoadInfo": "",
    "Poi": "",
    "RoomInfo": ""
  },
  {
    "id": "C94",
    "行政区": "大埔区",
    "Location": [
      114.172753,
      22.431278
    ],
    "Name": "蓬莱阆苑",
    "Address": "香港半山洲路东150米",
    "District": "",
    "RoadInfo": "半山洲路",
    "Poi": "",
    "RoomInfo": ""
  },
  {
    "id": "C95",
    "行政区": "油尖旺区",
    "Location": [
      114.173534,
      22.291563
    ],
    "Name": "Big Bus随上随下巴士九龙游",
    "Address": "香港尖沙咀天星码头1楼KP-38号铺",
    "District": "尖沙咀",
    "RoadInfo": "",
    "Poi": "天星码头KP-38号铺",
    "RoomInfo": "1楼"
  },
  {
    "id": "C96",
    "行政区": "西贡区",
    "Location": [
      114.291885,
      22.284075
    ],
    "Name": "清水湾第二湾泳滩",
    "Address": "香港清水湾第二湾泳滩",
    "District": "",
    "RoadInfo": "",
    "Poi": "清水湾第二湾泳滩",
    "RoomInfo": ""
  },
  {
    "id": "C97",
    "行政区": "U",
    "Location": [
      114.163825,
      22.276284
    ],
    "Name": "榕樹灣碼頭",
    "Address": "香港南丫島榕樹灣大街",
    "District": "南丫島",
    "RoadInfo": "榕樹灣大街",
    "Poi": "",
    "RoomInfo": ""
  },
  {
    "id": "C98",
    "行政区": "中西区",
    "Location": [
      114.15476,
      22.286567
    ],
    "Name": "爱丁堡广场",
    "Address": "香港中西区",
    "District": "中西区",
    "RoadInfo": "",
    "Poi": "",
    "RoomInfo": ""
  },
  {
    "id": "C99",
    "行政区": "西贡区",
    "Location": [
      114.291885,
      22.284075
    ],
    "Name": "佛堂门天后古庙",
    "Address": "香港清水湾",
    "District": "",
    "RoadInfo": "",
    "Poi": "清水湾",
    "RoomInfo": ""
  },
  {
    "id": "C100",
    "行政区": "深水埗区",
    "Location": [
      114.168701,
      22.324312
    ],
    "Name": "“3D巨熊”楼",
    "Address": "香港特别行政區深水埗區塘尾大南街180號",
    "District": "深水埗區塘尾",
    "RoadInfo": "大南街180號",
    "Poi": "",
    "RoomInfo": ""
  },
  {
    "id": "C101",
    "行政区": "东区",
    "Location": [
      114.216708,
      22.281366
    ],
    "Name": "海山楼",
    "Address": "香港鰂魚涌英皇道1028號海山樓",
    "District": "鰂魚涌",
    "RoadInfo": "英皇道1028號",
    "Poi": "海山樓",
    "RoomInfo": ""
  },
  {
    "id": "C102",
    "行政区": "油尖旺区",
    "Location": [
      114.1789,
      22.29091
    ],
    "Name": "Bohemian Garden",
    "Address": "香港尖沙咀梳士巴利道18号7楼",
    "District": "尖沙咀",
    "RoadInfo": "梳士巴利道18号",
    "Poi": "",
    "RoomInfo": "7楼"
  },
  {
    "id": "C103",
    "行政区": "观塘区",
    "Location": [
      114.215547,
      22.330802
    ],
    "Name": "坪石邨",
    "Address": "香港平山清水湾道2号",
    "District": "平山",
    "RoadInfo": "清水湾道2号",
    "Poi": "",
    "RoomInfo": ""
  },
  {
    "id": "C104",
    "行政区": "元朗区",
    "Location": [
      114.061103,
      22.437631
    ],
    "Name": "水头村",
    "Address": "香港锦田公路",
    "District": "",
    "RoadInfo": "锦田公路",
    "Poi": "",
    "RoomInfo": ""
  },
  {
    "id": "C105",
    "行政区": "中西区",
    "Location": [
      114.13512,
      22.272172
    ],
    "Name": "薄凫林牧场",
    "Address": "香港薄扶林薄扶林道141a号",
    "District": "薄扶林",
    "RoadInfo": "薄扶林道141a号",
    "Poi": "",
    "RoomInfo": ""
  },
  {
    "id": "C106",
    "行政区": "中西区",
    "Location": [
      114.1665,
      22.279561
    ],
    "Name": "香港大会堂",
    "Address": "香港中環愛丁堡廣場5號五號",
    "District": "中環",
    "RoadInfo": "",
    "Poi": "愛丁堡廣場",
    "RoomInfo": "5號五號"
  },
  {
    "id": "C107",
    "行政区": "荃湾区",
    "Location": [
      114.030342,
      22.324927
    ],
    "Name": "夢想花園",
    "Address": "香港香港迪士尼乐园度假区",
    "District": "",
    "RoadInfo": "",
    "Poi": "香港迪士尼乐园度假区",
    "RoomInfo": ""
  },
  {
    "id": "C108",
    "行政区": "南区",
    "Location": [
      114.13412,
      22.265194
    ],
    "Name": "薄扶林",
    "Address": "香港薄扶林",
    "District": "",
    "RoadInfo": "",
    "Poi": "薄扶林",
    "RoomInfo": ""
  },
  {
    "id": "C109",
    "行政区": "沙田区",
    "Location": [
      114.192987,
      22.379561
    ],
    "Name": "连成广场",
    "Address": "香港沙田沙田站围1号",
    "District": "沙田",
    "RoadInfo": "",
    "Poi": "沙田站围",
    "RoomInfo": "1号"
  },
  {
    "id": "C110",
    "行政区": "大埔区",
    "Location": [
      114.127685,
      22.435814
    ],
    "Name": "观音山",
    "Address": "香港林锦公路",
    "District": "",
    "RoadInfo": "林锦公路",
    "Poi": "",
    "RoomInfo": ""
  },
  {
    "id": "C111",
    "行政区": "元朗区",
    "Location": [
      114.05986,
      22.492678
    ],
    "Name": "米埔",
    "Address": "香港元朗区担竿洲路",
    "District": "元朗区",
    "RoadInfo": "担竿洲路",
    "Poi": "",
    "RoomInfo": ""
  },
  {
    "id": "C112",
    "行政区": "西贡区",
    "Location": [
      114.325702,
      22.394788
    ],
    "Name": "大帽山远足研习径",
    "Address": "香港大帽山大帽山遠足研習徑",
    "District": "大帽山",
    "RoadInfo": "",
    "Poi": "大帽山遠足研習徑",
    "RoomInfo": ""
  },
  {
    "id": "C113",
    "行政区": "元朗区",
    "Location": [
      114.012725,
      22.443573
    ],
    "Name": "屏山洪圣宫",
    "Address": "香港屏山",
    "District": "屏山",
    "RoadInfo": "",
    "Poi": "",
    "RoomInfo": ""
  },
  {
    "id": "C114",
    "行政区": "中西区",
    "Location": [
      114.16416,
      22.280276
    ],
    "Name": "怡和大厦",
    "Address": "香港中环康乐广场1号",
    "District": "中环",
    "RoadInfo": "",
    "Poi": "康乐广场",
    "RoomInfo": ""
  },
  {
    "id": "C115",
    "行政区": "西贡区",
    "Location": [
      114.267947,
      22.334935
    ],
    "Name": "香港科技大学展览馆",
    "Address": "香港科技大学旁",
    "District": "",
    "RoadInfo": "",
    "Poi": "香港市科技大学",
    "RoomInfo": ""
  },
  {
    "id": "C116",
    "行政区": "荃湾区",
    "Location": [
      114.120402,
      22.365183
    ],
    "Name": "荃新天地露天园林广场",
    "Address": "香港荃湾杨屋道1号荃新天地",
    "District": "荃湾",
    "RoadInfo": "杨屋道1号",
    "Poi": "荃新天地",
    "RoomInfo": ""
  },
  {
    "id": "C117",
    "行政区": "九龙城区",
    "Location": [
      114.19265,
      22.304331
    ],
    "Name": "和黄公园",
    "Address": "香港紅磡戴亞街",
    "District": "紅磡",
    "RoadInfo": "戴亞街",
    "Poi": "",
    "RoomInfo": ""
  },
  {
    "id": "C118",
    "行政区": "湾仔区",
    "Location": [
      114.193973,
      22.257407
    ],
    "Name": "香港新闻博览馆",
    "Address": "香港岛中环必列啫士街2号",
    "District": "中环",
    "RoadInfo": "必列啫士街2号",
    "Poi": "",
    "RoomInfo": ""
  },
  {
    "id": "C119",
    "行政区": "葵青区",
    "Location": [
      114.106898,
      22.360505
    ],
    "Name": "青泰苑室外籃球場",
    "Address": "香港號担杆山路8號",
    "District": "",
    "RoadInfo": "担杆山路8號",
    "Poi": "",
    "RoomInfo": ""
  },
  {
    "id": "C120",
    "行政区": "沙田区",
    "Location": [
      114.252526,
      22.408969
    ],
    "Name": "泥涌石滩",
    "Address": "香港马鞍山念明路1号",
    "District": "马鞍山",
    "RoadInfo": "念明路1号",
    "Poi": "",
    "RoomInfo": ""
  },
  {
    "id": "C121",
    "行政区": "东区",
    "Location": [
      114.207558,
      22.291498
    ],
    "Name": "葛量洪号灭火轮展览馆",
    "Address": "香港鲗鱼涌",
    "District": "",
    "RoadInfo": "",
    "Poi": "鲗鱼涌",
    "RoomInfo": ""
  },
  {
    "id": "C122",
    "行政区": "观塘区",
    "Location": [
      114.214148,
      22.328911
    ],
    "Name": "三山国王",
    "Address": "香港观塘道2号 坪石邨侧",
    "District": "",
    "RoadInfo": "观塘道2号",
    "Poi": "坪石邨",
    "RoomInfo": ""
  },
  {
    "id": "C123",
    "行政区": "九龙城区",
    "Location": [
      114.192364,
      22.330004
    ],
    "Name": "九龙城联合道侯王庙",
    "Address": "香港白鹤山联合路130号",
    "District": "白鹤山",
    "RoadInfo": "联合路130号",
    "Poi": "",
    "RoomInfo": ""
  },
  {
    "id": "C124",
    "行政区": "中西区",
    "Location": [
      114.153999,
      22.267247
    ],
    "Name": "旧山顶道",
    "Address": "香港炉峰峡",
    "District": "",
    "RoadInfo": "",
    "Poi": "炉峰峡",
    "RoomInfo": ""
  },
  {
    "id": "C125",
    "行政区": "东区",
    "Location": [
      114.234845,
      22.275994
    ],
    "Name": "筲萁湾古榕树",
    "Address": "香港筲箕湾东大街",
    "District": "筲箕湾",
    "RoadInfo": "东大街",
    "Poi": "",
    "RoomInfo": ""
  },
  {
    "id": "C126",
    "行政区": "油尖旺区",
    "Location": [
      114.162552,
      22.321255
    ],
    "Name": "南昌公园",
    "Address": "香港深水埗深旺道20號",
    "District": "深水埗",
    "RoadInfo": "深旺道20號",
    "Poi": "",
    "RoomInfo": ""
  },
  {
    "id": "C127",
    "行政区": "西贡区",
    "Location": [
      114.295921,
      22.268598
    ],
    "Name": "香港清水湾高尔夫乡村俱乐部",
    "Address": "香港新界清水灣大坳門路139號",
    "District": "清水灣",
    "RoadInfo": "大坳門路139號",
    "Poi": "",
    "RoomInfo": ""
  },
  {
    "id": "C128",
    "行政区": "中西区",
    "Location": [
      114.137074,
      22.274228
    ],
    "Name": "龙虎山郊野公园",
    "Address": "香港沙湾坳薄扶林道92号(山顶花园南侧)",
    "District": "沙湾坳",
    "RoadInfo": "薄扶林道92号",
    "Poi": "山顶花园",
    "RoomInfo": ""
  },
  {
    "id": "C129",
    "行政区": "油尖旺区",
    "Location": [
      114.168799,
      22.317055
    ],
    "Name": "诗歌舞街休憩花园",
    "Address": "香港大角咀界限街",
    "District": "大角咀",
    "RoadInfo": "界限街",
    "Poi": "",
    "RoomInfo": ""
  },
  {
    "id": "C130",
    "行政区": "元朗区",
    "Location": [
      114.012286,
      22.441645
    ],
    "Name": "屏山文物径",
    "Address": "香港屏山屏山文物徑",
    "District": "屏山",
    "RoadInfo": "",
    "Poi": "屏山文物徑",
    "RoomInfo": ""
  },
  {
    "id": "C131",
    "行政区": "南区",
    "Location": [
      114.244078,
      22.231849
    ],
    "Name": "石澳健康院",
    "Address": "香港南区石澳道石澳新村140号",
    "District": "南区石澳道",
    "RoadInfo": "",
    "Poi": "石澳新村",
    "RoomInfo": "140号"
  },
  {
    "id": "C132",
    "行政区": "屯门区",
    "Location": [
      113.979363,
      22.393569
    ],
    "Name": "海下湾海岸公园",
    "Address": "香港新界",
    "District": "",
    "RoadInfo": "",
    "Poi": "",
    "RoomInfo": ""
  },
  {
    "id": "C133",
    "行政区": "中西区",
    "Location": [
      114.163697,
      22.277554
    ],
    "Name": "徐氏艺术馆",
    "Address": "香港皇后大道中5号大楼4楼",
    "District": "",
    "RoadInfo": "皇后大道中5号",
    "Poi": "大楼",
    "RoomInfo": "4楼"
  },
  {
    "id": "C134",
    "行政区": "屯门区",
    "Location": [
      113.993318,
      22.369992
    ],
    "Name": "妙法寺",
    "Address": "香港屯門藍地青山公路18號",
    "District": "屯門藍地",
    "RoadInfo": "青山公路18號",
    "Poi": "",
    "RoomInfo": ""
  },
  {
    "id": "C135",
    "行政区": "荃湾区",
    "Location": [
      114.111048,
      22.402058
    ],
    "Name": "大榄郊野公园",
    "Address": "香港大榄郊野公园",
    "District": "",
    "RoadInfo": "",
    "Poi": "大榄郊野公园",
    "RoomInfo": ""
  },
  {
    "id": "C136",
    "行政区": "南区",
    "Location": [
      114.160603,
      22.247231
    ],
    "Name": "香港仔大道／鸭脷洲大桥休憩处",
    "Address": "香港香港仔",
    "District": "",
    "RoadInfo": "",
    "Poi": "",
    "RoomInfo": ""
  },
  {
    "id": "C137",
    "行政区": "湾仔区",
    "Location": [
      114.186456,
      22.268636
    ],
    "Name": "神风洞",
    "Address": "香港南丫岛",
    "District": "南丫岛",
    "RoadInfo": "",
    "Poi": "",
    "RoomInfo": ""
  },
  {
    "id": "C138",
    "行政区": "中西区",
    "Location": [
      114.166831,
      22.273474
    ],
    "Name": "香港公园-海洋公园温室",
    "Address": "香港特别行政区中西区坚尼地道与麦当劳道交叉口东北150米",
    "District": "中西区",
    "RoadInfo": "坚尼地道麦当劳道",
    "Poi": "",
    "RoomInfo": ""
  },
  {
    "id": "C139",
    "行政区": "离岛区",
    "Location": [
      114.027788,
      22.292031
    ],
    "Name": "愉景湾高尔夫球会",
    "Address": "香港大屿山愉景湾, 愉景山道",
    "District": "大屿山",
    "RoadInfo": "愉景山道",
    "Poi": "愉景湾",
    "RoomInfo": ""
  },
  {
    "id": "C140",
    "行政区": "中西区",
    "Location": [
      114.164229,
      22.274085
    ],
    "Name": "香港视觉艺术中心",
    "Address": "香港坚尼地道7号",
    "District": "",
    "RoadInfo": "坚尼地道7号",
    "Poi": "",
    "RoomInfo": ""
  },
  {
    "id": "C141",
    "行政区": "中西区",
    "Location": [
      114.169502,
      22.276009
    ],
    "Name": "金钟",
    "Address": "香港金钟",
    "District": "",
    "RoadInfo": "",
    "Poi": "金钟",
    "RoomInfo": ""
  },
  {
    "id": "C142",
    "行政区": "油尖旺区",
    "Location": [
      114.178816,
      22.292234
    ],
    "Name": "梳士巴利花园艺术广场",
    "Address": "香港尖沙咀梳士巴利道",
    "District": "尖沙咀",
    "RoadInfo": "梳士巴利道",
    "Poi": "",
    "RoomInfo": ""
  },
  {
    "id": "C143",
    "行政区": "沙田区",
    "Location": [
      114.246224,
      22.427953
    ],
    "Name": "海星灣灘",
    "Address": "香港乌溪沙邻近落禾沙里住宅区、迎海、",
    "District": "",
    "RoadInfo": "",
    "Poi": "乌溪沙落禾沙里住宅区迎海、",
    "RoomInfo": ""
  },
  {
    "id": "C144",
    "行政区": "湾仔区",
    "Location": [
      114.182085,
      22.274624
    ],
    "Name": "动漫基地",
    "Address": "香港 湾仔茂萝街7号地下7号铺",
    "District": "",
    "RoadInfo": "茂萝街7号",
    "Poi": "地下",
    "RoomInfo": "7号铺"
  },
  {
    "id": "C145",
    "行政区": "东区",
    "Location": [
      114.242719,
      22.277863
    ],
    "Name": "白沙湾",
    "Address": "香港白沙湾",
    "District": "",
    "RoadInfo": "",
    "Poi": "白沙湾",
    "RoomInfo": ""
  },
  {
    "id": "C146",
    "行政区": "油尖旺区",
    "Location": [
      114.181059,
      22.295603
    ],
    "Name": "香港龙舟嘉年华",
    "Address": "香港九龙尖沙咀东部市政局百周年纪念花园",
    "District": "尖沙咀",
    "RoadInfo": "",
    "Poi": "东部市政局百周年纪念花园",
    "RoomInfo": ""
  },
  {
    "id": "C147",
    "行政区": "东区",
    "Location": [
      114.241112,
      22.264943
    ],
    "Name": "罗屋民俗馆",
    "Address": "香港柴灣吉勝街",
    "District": "柴灣",
    "RoadInfo": "吉勝街",
    "Poi": "",
    "RoomInfo": ""
  },
  {
    "id": "C148",
    "行政区": "屯门区",
    "Location": [
      113.968194,
      22.397592
    ],
    "Name": "大峡谷",
    "Address": "香港屯门良景菠萝山顶",
    "District": "屯门",
    "RoadInfo": "",
    "Poi": "良景菠萝山顶",
    "RoomInfo": ""
  },
  {
    "id": "C149",
    "行政区": "湾仔区",
    "Location": [
      114.178246,
      22.271558
    ],
    "Name": "环保轩",
    "Address": "香港皇后大道东221号",
    "District": "",
    "RoadInfo": "皇后大道221号",
    "Poi": "",
    "RoomInfo": ""
  }
]