[
  {
    "id": "M0",
    "行政区": "离岛区",
    "Location": [
      114.021362,
      22.305926
    ],
    "Name": "香港迪士尼乐园",
    "Address": "香港新界大屿山香港迪士尼度假区",
    "District": "大屿山",
    "RoadInfo": "",
    "Poi": "香港迪士尼度假区",
    "RoomInfo": ""
  },
  {
    "id": "M1",
    "行政区": "南区",
    "Location": [
      114.180872,
      22.243762
    ],
    "Name": "香港海洋公园",
    "Address": "香港香港岛南区黄竹坑道180号",
    "District": "南区",
    "RoadInfo": "黄竹坑道180号",
    "Poi": "",
    "RoomInfo": ""
  },
  {
    "id": "M2",
    "行政区": "中西区",
    "Location": [
      114.148369,
      22.271431
    ],
    "Name": "太平山顶",
    "Address": "香港特别行政区中西区太平山",
    "District": "中西区",
    "RoadInfo": "",
    "Poi": "太平山",
    "RoomInfo": ""
  },
  {
    "id": "M3",
    "行政区": "中西区",
    "Location": [
      114.15476,
      22.286567
    ],
    "Name": "中环",
    "Address": "香港中西区中环",
    "District": "中西区",
    "RoadInfo": "",
    "Poi": "中环",
    "RoomInfo": ""
  },
  {
    "id": "M4",
    "行政区": "中西区",
    "Location": [
      114.170249,
      22.27643
    ],
    "Name": "维多利亚港",
    "Address": "香港特别行政区东区金钟夏慤道18号",
    "District": "东区金钟",
    "RoadInfo": "夏慤道18号",
    "Poi": "",
    "RoomInfo": ""
  },
  {
    "id": "M5",
    "行政区": "九龙城区",
    "Location": [
      114.192847,
      22.31251
    ],
    "Name": "旺角",
    "Address": "香港的油尖旺区北部、九龙中部",
    "District": "油尖旺区",
    "RoadInfo": "",
    "Poi": "北部九龙中部",
    "RoomInfo": ""
  },
  {
    "id": "M6",
    "行政区": "油尖旺区",
    "Location": [
      114.177483,
      22.295898
    ],
    "Name": "尖沙咀",
    "Address": "香港特别行政区九龙尖沙咀",
    "District": "尖沙咀",
    "RoadInfo": "",
    "Poi": "",
    "RoomInfo": ""
  },
  {
    "id": "M7",
    "行政区": "U",
    "Location": [
      114.163825,
      22.276284
    ],
    "Name": "石澳",
    "Address": "香港南区东部石澳",
    "District": "南区东部石澳",
    "RoadInfo": "",
    "Poi": "",
    "RoomInfo": ""
  },
  {
    "id": "M8",
    "行政区": "湾仔区",
    "Location": [
      114.186456,
      22.268636
    ],
    "Name": "南丫岛",
    "Address": "香港特别行政区南丫岛",
    "District": "南丫岛",
    "RoadInfo": "",
    "Poi": "",
    "RoomInfo": ""
  },
  {
    "id": "M9",
    "行政区": "离岛区",
    "Location": [
      113.94612,
      22.286408
    ],
    "Name": "长洲岛",
    "Address": "香港特别行政区离岛区",
    "District": "离岛区",
    "RoadInfo": "",
    "Poi": "",
    "RoomInfo": ""
  },
  {
    "id": "M10",
    "行政区": "油尖旺区",
    "Location": [
      114.177727,
      22.290578
    ],
    "Name": "星光大道",
    "Address": "香港特别行政区九龙尖沙咀星光大道",
    "District": "尖沙咀",
    "RoadInfo": "星光大道",
    "Poi": "",
    "RoomInfo": ""
  },
  {
    "id": "M11",
    "行政区": "屯门区",
    "Location": [
      113.979363,
      22.393569
    ],
    "Name": "大屿山",
    "Address": "香港新界离岛大屿山",
    "District": "离岛",
    "RoadInfo": "",
    "Poi": "大屿山",
    "RoomInfo": ""
  },
  {
    "id": "M12",
    "行政区": "油尖旺区",
    "Location": [
      114.175339,
      22.305173
    ],
    "Name": "庙街(香港)",
    "Address": "香港九龙油麻地庙街",
    "District": "",
    "RoadInfo": "油麻地庙街",
    "Poi": "",
    "RoomInfo": ""
  },
  {
    "id": "M13",
    "行政区": "中西区",
    "Location": [
      114.154783,
      22.268594
    ],
    "Name": "香港杜莎夫人蜡像馆",
    "Address": "山顶道128号凌霄阁P101号铺",
    "District": "",
    "RoadInfo": "山顶道128号",
    "Poi": "凌霄阁",
    "RoomInfo": "P101号铺"
  },
  {
    "id": "M14",
    "行政区": "中西区",
    "Location": [
      114.143768,
      22.281328
    ],
    "Name": "香港大学",
    "Address": "香港薄扶林道香港大学",
    "District": "",
    "RoadInfo": "薄扶林道",
    "Poi": "香港大学",
    "RoomInfo": ""
  },
  {
    "id": "M15",
    "行政区": "湾仔区",
    "Location": [
      114.178013,
      22.280418
    ],
    "Name": "金紫荆广场",
    "Address": "香港湾仔博览道1号",
    "District": "湾仔",
    "RoadInfo": "博览道1号",
    "Poi": "",
    "RoomInfo": ""
  },
  {
    "id": "M16",
    "行政区": "黄大仙区",
    "Location": [
      114.198233,
      22.340021
    ],
    "Name": "啬色园黄大仙祠",
    "Address": "香港特别行政区九龙黄大仙竹园村2号",
    "District": "九龙黄大仙竹园村",
    "RoadInfo": "",
    "Poi": "",
    "RoomInfo": "2号"
  },
  {
    "id": "M17",
    "行政区": "中西区",
    "Location": [
      114.159731,
      22.281899
    ],
    "Name": "半山扶梯",
    "Address": "香港岛中环租庇利街",
    "District": "市岛中环",
    "RoadInfo": "租庇利街",
    "Poi": "",
    "RoomInfo": ""
  },
  {
    "id": "M18",
    "行政区": "北区",
    "Location": [
      114.130136,
      22.535795
    ],
    "Name": "大澳渔村",
    "Address": "香港特别行政区北区东门南路1025号老地方酒店",
    "District": "北区",
    "RoadInfo": "东门南路1025号",
    "Poi": "老地方酒店",
    "RoomInfo": ""
  },
  {
    "id": "M19",
    "行政区": "南区",
    "Location": [
      114.200263,
      22.235277
    ],
    "Name": "浅水湾",
    "Address": "香港特别行政区南区浅水湾泳滩道16号",
    "District": "南区浅水湾",
    "RoadInfo": "泳滩道16号",
    "Poi": "",
    "RoomInfo": ""
  },
  {
    "id": "M20",
    "行政区": "油尖旺区",
    "Location": [
      114.18055,
      22.303968
    ],
    "Name": "油麻地",
    "Address": "香港特别行政区油尖旺区油麻地",
    "District": "油尖旺区",
    "RoadInfo": "",
    "Poi": "油麻地",
    "RoomInfo": ""
  },
  {
    "id": "M21",
    "行政区": "中西区",
    "Location": [
      114.154783,
      22.268594
    ],
    "Name": "山顶凌霄阁",
    "Address": "香港山顶山顶道128号",
    "District": "山顶",
    "RoadInfo": "山顶道128号",
    "Poi": "",
    "RoomInfo": ""
  },
  {
    "id": "M22",
    "行政区": "南区",
    "Location": [
      114.220819,
      22.201063
    ],
    "Name": "赤柱",
    "Address": "香港岛南区赤柱半岛",
    "District": "岛南区",
    "RoadInfo": "",
    "Poi": "赤柱半岛",
    "RoomInfo": ""
  },
  {
    "id": "M23",
    "行政区": "九龙城区",
    "Location": [
      114.183009,
      22.316997
    ],
    "Name": "深水埗",
    "Address": "香港九龙半岛西北部",
    "District": "",
    "RoadInfo": "",
    "Poi": "九龙半岛",
    "RoomInfo": ""
  },
  {
    "id": "M24",
    "行政区": "中西区",
    "Location": [
      114.166668,
      22.282657
    ],
    "Name": "香港摩天轮",
    "Address": "香港中西区中环民光街33号(中环海滨长廊)",
    "District": "中西区中环",
    "RoadInfo": "民光街33号",
    "Poi": "中环海滨长廊",
    "RoomInfo": ""
  },
  {
    "id": "M25",
    "行政区": "油尖旺区",
    "Location": [
      114.18055,
      22.303968
    ],
    "Name": "弥敦道",
    "Address": "香港特别行政区油尖旺区油麻地",
    "District": "油尖旺区",
    "RoadInfo": "",
    "Poi": "油麻地",
    "RoomInfo": ""
  },
  {
    "id": "M26",
    "行政区": "沙田区",
    "Location": [
      114.212345,
      22.417663
    ],
    "Name": "香港中文大学",
    "Address": "香港特別行政區，新界沙田，香港中文大學",
    "District": "特別行政區",
    "RoadInfo": "",
    "Poi": "香港中文大學",
    "RoomInfo": ""
  },
  {
    "id": "M27",
    "行政区": "U",
    "Location": [
      null,
      null
    ],
    "Name": "湾仔",
    "Address": "香港岛北岸的中央位置，东起坚拿道，西至军器厂街，南至宝云道。",
    "District": "",
    "RoadInfo": "坚拿道军器厂街宝云道",
    "Poi": "香港市岛中央位置",
    "RoomInfo": ""
  },
  {
    "id": "M28",
    "行政区": "油尖旺区",
    "Location": [
      114.173885,
      22.290799
    ],
    "Name": "天星码头",
    "Address": "香港特別行政区油尖旺区梳士巴利道天星维港游附近",
    "District": "油尖旺区",
    "RoadInfo": "梳士巴利道",
    "Poi": "天星维港游",
    "RoomInfo": ""
  },
  {
    "id": "M29",
    "行政区": "U",
    "Location": [
      114.163825,
      22.276284
    ],
    "Name": "西贡",
    "Address": "香港新界西贡区西贡半岛",
    "District": "西贡区",
    "RoadInfo": "",
    "Poi": "西贡半岛",
    "RoomInfo": ""
  },
  {
    "id": "M30",
    "行政区": "九龙城区",
    "Location": [
      114.192847,
      22.31251
    ],
    "Name": "重庆大厦",
    "Address": "香港九龙尖沙咀敦道36-44号",
    "District": "尖沙咀",
    "RoadInfo": "敦道36-44号",
    "Poi": "",
    "RoomInfo": ""
  },
  {
    "id": "M31",
    "行政区": "黄大仙区",
    "Location": [
      114.211213,
      22.332704
    ],
    "Name": "彩虹邨",
    "Address": "香港特别行政区黄大仙区黄菊路",
    "District": "黄大仙区",
    "RoadInfo": "黄菊路",
    "Poi": "",
    "RoomInfo": ""
  },
  {
    "id": "M32",
    "行政区": "油尖旺区",
    "Location": [
      114.182503,
      22.298227
    ],
    "Name": "香港科学馆",
    "Address": "香港九龙尖沙咀东部科学馆道二号",
    "District": "尖沙咀东部",
    "RoadInfo": "科学馆道二号",
    "Poi": "",
    "RoomInfo": ""
  },
  {
    "id": "M33",
    "行政区": "油尖旺区",
    "Location": [
      114.165138,
      22.30076
    ],
    "Name": "天际100香港观景台",
    "Address": "香港九龙柯士甸道西1号环球贸易广场100楼",
    "District": "",
    "RoadInfo": "柯士甸道西1号",
    "Poi": "环球贸易广场",
    "RoomInfo": "100楼"
  },
  {
    "id": "M34",
    "行政区": "西贡区",
    "Location": [
      114.323978,
      22.393726
    ],
    "Name": "麦理浩径",
    "Address": "香港特别行政区西贡区西贡北潭涌为起点，屯门为终点",
    "District": "西贡区西贡",
    "RoadInfo": "",
    "Poi": "北潭涌屯门为终点",
    "RoomInfo": ""
  },
  {
    "id": "M35",
    "行政区": "中西区",
    "Location": [
      114.122642,
      22.276303
    ],
    "Name": "西环泳棚",
    "Address": "香港摩星岭域多利道西环泳棚",
    "District": "摩星岭",
    "RoadInfo": "域多利道",
    "Poi": "西环泳棚",
    "RoomInfo": ""
  },
  {
    "id": "M36",
    "行政区": "油尖旺区",
    "Location": [
      114.174596,
      22.30206
    ],
    "Name": "庙街夜市",
    "Address": "香港特別行政区油尖旺区庙街",
    "District": "油尖旺区",
    "RoadInfo": "庙街",
    "Poi": "",
    "RoomInfo": ""
  },
  {
    "id": "M37",
    "行政区": "东区",
    "Location": [
      114.216666,
      22.281968
    ],
    "Name": "鲗鱼涌巨厦",
    "Address": "香港特別行政區東區鰂魚涌英皇道1010-1044",
    "District": "東區鰂魚涌",
    "RoadInfo": "英皇道1010-1044",
    "Poi": "",
    "RoomInfo": ""
  },
  {
    "id": "M38",
    "行政区": "中西区",
    "Location": [
      114.164559,
      22.275364
    ],
    "Name": "太平山顶缆车",
    "Address": "香港特别行政区中西区香港岛中环花园道33号",
    "District": "中西区中环",
    "RoadInfo": "花园道33号",
    "Poi": "",
    "RoomInfo": ""
  },
  {
    "id": "M39",
    "行政区": "油尖旺区",
    "Location": [
      114.175565,
      22.290511
    ],
    "Name": "幻彩咏香江灯光秀",
    "Address": "香港特别行政区油尖旺区香港维多利亚港两岸",
    "District": "油尖旺区",
    "RoadInfo": "",
    "Poi": "香港维多利亚港两岸",
    "RoomInfo": ""
  },
  {
    "id": "M40",
    "行政区": "油尖旺区",
    "Location": [
      114.176176,
      22.291772
    ],
    "Name": "尖沙咀钟楼",
    "Address": "香港特别行政区油尖旺区尖沙咀香港文化中心广场(天星小轮码头附近)",
    "District": "油尖旺区尖沙咀",
    "RoadInfo": "",
    "Poi": "香港文化中心广场天星小轮码头",
    "RoomInfo": ""
  },
  {
    "id": "M41",
    "行政区": "油尖旺区",
    "Location": [
      114.182266,
      22.299172
    ],
    "Name": "香港历史博物馆",
    "Address": "香港九龍尖沙咀漆咸道南100號",
    "District": "尖沙咀",
    "RoadInfo": "漆咸道100號",
    "Poi": "",
    "RoomInfo": ""
  },
  {
    "id": "M42",
    "行政区": "油尖旺区",
    "Location": [
      114.176107,
      22.29117
    ],
    "Name": "香港太空馆",
    "Address": "香港特别行政区油尖旺区尖沙咀梳士巴利道10号",
    "District": "油尖旺区尖沙咀",
    "RoadInfo": "梳士巴利道10号",
    "Poi": "",
    "RoomInfo": ""
  },
  {
    "id": "M43",
    "行政区": "湾仔区",
    "Location": [
      114.178013,
      22.280418
    ],
    "Name": "香港会议展览中心",
    "Address": "香港特别行政区湾仔区博览道1号",
    "District": "湾仔区",
    "RoadInfo": "博览道1号",
    "Poi": "",
    "RoomInfo": ""
  },
  {
    "id": "M44",
    "行政区": "大埔区",
    "Location": [
      114.171743,
      22.445653
    ],
    "Name": "塔门",
    "Address": "香港特别行政区大埔区西贡北部(赤门海峡之东)",
    "District": "大埔区",
    "RoadInfo": "",
    "Poi": "西贡赤门海峡",
    "RoomInfo": ""
  },
  {
    "id": "M45",
    "行政区": "油尖旺区",
    "Location": [
      114.177017,
      22.295933
    ],
    "Name": "九龙公园",
    "Address": "香港特别行政区油尖旺区尖沙咀柯士甸道22号九龙公园体育馆九龙公园",
    "District": "油尖旺区尖沙咀",
    "RoadInfo": "柯士甸道22号",
    "Poi": "九龙公园体育馆九龙公园",
    "RoomInfo": ""
  },
  {
    "id": "M46",
    "行政区": "油尖旺区",
    "Location": [
      114.175335,
      22.291329
    ],
    "Name": "香港文化中心",
    "Address": "香港特别行政区九龙尖沙咀梳士巴利道十号香港文化中心演艺大楼五楼",
    "District": "尖沙咀",
    "RoadInfo": "梳士巴利道十号",
    "Poi": "香港文化中心演艺大楼",
    "RoomInfo": "五楼"
  },
  {
    "id": "M47",
    "行政区": "荃湾区",
    "Location": [
      114.065557,
      22.344854
    ],
    "Name": "香港挪亚方舟",
    "Address": "香港新界马湾珀欣路33号",
    "District": "马湾",
    "RoadInfo": "珀欣路33号",
    "Poi": "",
    "RoomInfo": ""
  },
  {
    "id": "M48",
    "行政区": "U",
    "Location": [
      114.163825,
      22.276284
    ],
    "Name": "香港兰桂坊",
    "Address": "香港中环",
    "District": "",
    "RoadInfo": "",
    "Poi": "中环",
    "RoomInfo": ""
  },
  {
    "id": "M49",
    "行政区": "离岛区",
    "Location": [
      114.021362,
      22.305926
    ],
    "Name": "天坛大佛",
    "Address": "香港大嶼山昂平路",
    "District": "大嶼山",
    "RoadInfo": "昂平路",
    "Poi": "",
    "RoomInfo": ""
  },
  {
    "id": "M50",
    "行政区": "中西区",
    "Location": [
      114.157857,
      22.279584
    ],
    "Name": "嘉咸街",
    "Address": "香港中西区中环嘉咸街46号与荷里活道48号交界处",
    "District": "中西区中环",
    "RoadInfo": "嘉咸街46号荷里活道48号",
    "Poi": "",
    "RoomInfo": ""
  },
  {
    "id": "M51",
    "行政区": "元朗区",
    "Location": [
      114.015195,
      22.466173
    ],
    "Name": "香港湿地公园",
    "Address": "香港新界天水围湿地公园路香港湿地公园",
    "District": "",
    "RoadInfo": "",
    "Poi": "天水围湿地公园香港湿地公园",
    "RoomInfo": ""
  },
  {
    "id": "M52",
    "行政区": "离岛区",
    "Location": [
      114.115836,
      22.224942
    ],
    "Name": "南丫岛榕树湾",
    "Address": "香港南丫岛榕树湾",
    "District": "南丫岛",
    "RoadInfo": "",
    "Poi": "榕树湾",
    "RoomInfo": ""
  },
  {
    "id": "M53",
    "行政区": "中西区",
    "Location": [
      114.15476,
      22.286567
    ],
    "Name": "香港叮叮车",
    "Address": "香港特別行政区中西区坚尼地城-筲箕湾",
    "District": "中西区",
    "RoadInfo": "",
    "Poi": "坚尼地城筲箕湾",
    "RoomInfo": ""
  },
  {
    "id": "M54",
    "行政区": "离岛区",
    "Location": [
      114.115836,
      22.224942
    ],
    "Name": "洪圣爷湾泳滩",
    "Address": "香港离岛南丫岛榕树湾洪圣爷湾",
    "District": "离岛南丫岛榕树湾",
    "RoadInfo": "",
    "Poi": "洪圣爷湾",
    "RoomInfo": ""
  },
  {
    "id": "M55",
    "行政区": "离岛区",
    "Location": [
      113.907133,
      22.253449
    ],
    "Name": "香港昂坪360缆车",
    "Address": "香港特別行政区离岛区宝昂路",
    "District": "离岛区",
    "RoadInfo": "宝昂路",
    "Poi": "",
    "RoomInfo": ""
  },
  {
    "id": "M56",
    "行政区": "油尖旺区",
    "Location": [
      114.176899,
      22.290718
    ],
    "Name": "香港艺术馆",
    "Address": "香港九龍尖沙咀梳士巴利道10號香港藝術館",
    "District": "尖沙咀",
    "RoadInfo": "梳士巴利道10號",
    "Poi": "香港藝術館",
    "RoomInfo": ""
  },
  {
    "id": "M57",
    "行政区": "中西区",
    "Location": [
      114.164559,
      22.275364
    ],
    "Name": "中银大厦",
    "Address": "香港中環花園道1號",
    "District": "中環",
    "RoadInfo": "花園道1號",
    "Poi": "",
    "RoomInfo": ""
  },
  {
    "id": "M58",
    "行政区": "中西区",
    "Location": [
      114.161778,
      22.277244
    ],
    "Name": "都爹利街石阶及煤气灯",
    "Address": "香港中环都爹利街13号",
    "District": "中环",
    "RoadInfo": "都爹利街13号",
    "Poi": "",
    "RoomInfo": ""
  },
  {
    "id": "M59",
    "行政区": "中西区",
    "Location": [
      114.157609,
      22.285009
    ],
    "Name": "香港港澳码头",
    "Address": "香港上環干諾道中168-200號",
    "District": "上環",
    "RoadInfo": "干諾道168-200號",
    "Poi": "",
    "RoomInfo": ""
  },
  {
    "id": "M60",
    "行政区": "油尖旺区",
    "Location": [
      114.176289,
      22.3128
    ],
    "Name": "通菜街",
    "Address": "香港特别行政区九龙旺角亚皆老街与登打士街之间的一段通菜街",
    "District": "旺角",
    "RoadInfo": "亚皆老街登打士街通菜街",
    "Poi": "",
    "RoomInfo": ""
  },
  {
    "id": "M61",
    "行政区": "中西区",
    "Location": [
      114.1591,
      22.279114
    ],
    "Name": "大馆",
    "Address": "香港岛中环荷李活道10号",
    "District": "市岛中环",
    "RoadInfo": "荷李活道10号",
    "Poi": "",
    "RoomInfo": ""
  },
  {
    "id": "M62",
    "行政区": "东区",
    "Location": [
      114.195922,
      22.279727
    ],
    "Name": "维多利亚公园",
    "Address": "香港銅鑼灣興發街一號",
    "District": "",
    "RoadInfo": "興發街一號",
    "Poi": "",
    "RoomInfo": ""
  },
  {
    "id": "M63",
    "行政区": "中西区",
    "Location": [
      114.153447,
      22.282856
    ],
    "Name": "荷李活道",
    "Address": "香港中环荷李活道",
    "District": "中环",
    "RoadInfo": "荷李活道",
    "Poi": "",
    "RoomInfo": ""
  },
  {
    "id": "M64",
    "行政区": "荃湾区",
    "Location": [
      114.030342,
      22.324927
    ],
    "Name": "幻想世界",
    "Address": "香港特别行政区离岛区大屿山竹篙湾迪士尼乐园幻想道",
    "District": "离岛区大屿山",
    "RoadInfo": "幻想道",
    "Poi": "竹篙湾迪士尼乐园",
    "RoomInfo": ""
  },
  {
    "id": "M65",
    "行政区": "中西区",
    "Location": [
      114.153447,
      22.282856
    ],
    "Name": "砵甸乍街",
    "Address": "香港中西区中环荷李活道交界至干诺道中环段(近兰桂坊)",
    "District": "中西区中环",
    "RoadInfo": "荷李活道干诺道兰桂坊",
    "Poi": "中环段",
    "RoomInfo": ""
  },
  {
    "id": "M66",
    "行政区": "油尖旺区",
    "Location": [
      114.18413,
      22.302378
    ],
    "Name": "香港理工大学",
    "Address": "香港红磡育才道11号",
    "District": "红磡",
    "RoadInfo": "育才道11号",
    "Poi": "",
    "RoomInfo": ""
  },
  {
    "id": "M67",
    "行政区": "荃湾区",
    "Location": [
      114.030342,
      22.324927
    ],
    "Name": "美国小镇大街",
    "Address": "香港特别行政区离岛区新界大屿山迪士尼乐园度假区",
    "District": "离岛区",
    "RoadInfo": "",
    "Poi": "新界大屿山迪士尼乐园度假区",
    "RoomInfo": ""
  },
  {
    "id": "M68",
    "行政区": "中西区",
    "Location": [
      114.164862,
      22.276168
    ],
    "Name": "圣约翰座堂",
    "Address": "香港特别行政区中西区花园道4-8",
    "District": "中西区",
    "RoadInfo": "花园道4-8",
    "Poi": "",
    "RoomInfo": ""
  },
  {
    "id": "M69",
    "行政区": "屯门区",
    "Location": [
      113.979363,
      22.393569
    ],
    "Name": "荃湾",
    "Address": "位于香港新界西南",
    "District": "西南",
    "RoadInfo": "",
    "Poi": "",
    "RoomInfo": ""
  },
  {
    "id": "M70",
    "行政区": "荃湾区",
    "Location": [
      114.030342,
      22.324927
    ],
    "Name": "迷离庄园",
    "Address": "香港迪士尼樂園",
    "District": "",
    "RoadInfo": "",
    "Poi": "迪士尼樂園",
    "RoomInfo": ""
  },
  {
    "id": "M71",
    "行政区": "湾仔区",
    "Location": [
      114.190301,
      22.277546
    ],
    "Name": "铜锣湾",
    "Address": "香港特别行政区记利佐治街2-10号",
    "District": "",
    "RoadInfo": "记利佐治街2-10号",
    "Poi": "",
    "RoomInfo": ""
  },
  {
    "id": "M72",
    "行政区": "中西区",
    "Location": [
      114.131855,
      22.280689
    ],
    "Name": "西环码头",
    "Address": "香港特别行政区中西区西环坚尼地城新海旁爹核士街交界",
    "District": "中西区西环",
    "RoadInfo": "新海旁爹核士街",
    "Poi": "坚尼地城",
    "RoomInfo": ""
  },
  {
    "id": "M73",
    "行政区": "离岛区",
    "Location": [
      114.021362,
      22.305926
    ],
    "Name": "反斗奇兵大本营",
    "Address": "香港特别行政区离岛区大屿山香港迪士尼乐园度假区反斗奇兵大本营",
    "District": "离岛区",
    "RoadInfo": "",
    "Poi": "大屿山香港迪士尼乐园度假区反斗奇兵大本营",
    "RoomInfo": ""
  },
  {
    "id": "M74",
    "行政区": "离岛区",
    "Location": [
      113.912259,
      22.252577
    ],
    "Name": "宝莲寺",
    "Address": "香港大屿山昂坪宝莲禅寺",
    "District": "大屿山昂坪",
    "RoadInfo": "",
    "Poi": "宝莲禅寺",
    "RoomInfo": ""
  },
  {
    "id": "M75",
    "行政区": "西贡区",
    "Location": [
      114.291885,
      22.284075
    ],
    "Name": "香港科技大学",
    "Address": "香港特别行政区西贡区清水湾畔",
    "District": "西贡区",
    "RoadInfo": "",
    "Poi": "清水湾畔",
    "RoomInfo": ""
  },
  {
    "id": "M76",
    "行政区": "中西区",
    "Location": [
      114.165905,
      22.274731
    ],
    "Name": "香港公园",
    "Address": "香港中环红棉路19号",
    "District": "中环",
    "RoadInfo": "红棉路19号",
    "Poi": "",
    "RoomInfo": ""
  },
  {
    "id": "M77",
    "行政区": "荃湾区",
    "Location": [
      114.030342,
      22.324927
    ],
    "Name": "明日世界",
    "Address": "香港特别行政区离岛区大屿山香港迪士尼乐园幻想世界内",
    "District": "离岛区大屿山",
    "RoadInfo": "",
    "Poi": "香港迪士尼乐园幻想世界内",
    "RoomInfo": ""
  },
  {
    "id": "M78",
    "行政区": "南区",
    "Location": [
      114.240788,
      22.236823
    ],
    "Name": "龙脊",
    "Address": "香港石澳",
    "District": "石澳",
    "RoadInfo": "",
    "Poi": "",
    "RoomInfo": ""
  },
  {
    "id": "M79",
    "行政区": "U",
    "Location": [
      114.163825,
      22.276284
    ],
    "Name": "元朗",
    "Address": "香港",
    "District": "",
    "RoadInfo": "",
    "Poi": "",
    "RoomInfo": ""
  },
  {
    "id": "M80",
    "行政区": "离岛区",
    "Location": [
      114.264343,
      22.160751
    ],
    "Name": "蒲台岛",
    "Address": "香港特别行政区离岛区最南端蒲台群岛",
    "District": "离岛区",
    "RoadInfo": "",
    "Poi": "蒲台群岛",
    "RoomInfo": ""
  },
  {
    "id": "M81",
    "行政区": "沙田区",
    "Location": [
      114.190344,
      22.374379
    ],
    "Name": "香港文化博物馆",
    "Address": "香港新界沙田文林路1号",
    "District": "沙田",
    "RoadInfo": "文林路1号",
    "Poi": "",
    "RoomInfo": ""
  },
  {
    "id": "M82",
    "行政区": "荃湾区",
    "Location": [
      114.067318,
      22.350948
    ],
    "Name": "青马大桥",
    "Address": "香港青衣岛与马湾岛之间",
    "District": "青衣岛马湾岛",
    "RoadInfo": "",
    "Poi": "",
    "RoomInfo": ""
  },
  {
    "id": "M83",
    "行政区": "中西区",
    "Location": [
      114.165092,
      22.279094
    ],
    "Name": "皇后像广场",
    "Address": "香港中环德辅道中皇后像广场",
    "District": "中环",
    "RoadInfo": "德辅道",
    "Poi": "皇后像广场",
    "RoomInfo": ""
  },
  {
    "id": "M84",
    "行政区": "离岛区",
    "Location": [
      114.136525,
      22.202046
    ],
    "Name": "索罟湾",
    "Address": "香港索罟湾",
    "District": "",
    "RoadInfo": "",
    "Poi": "索罟湾",
    "RoomInfo": ""
  },
  {
    "id": "M85",
    "行政区": "中西区",
    "Location": [
      114.165341,
      22.278254
    ],
    "Name": "香港立法会大楼",
    "Address": "香港中环昃臣道8号",
    "District": "中环",
    "RoadInfo": "昃臣道8号",
    "Poi": "",
    "RoomInfo": ""
  },
  {
    "id": "M86",
    "行政区": "九龙城区",
    "Location": [
      114.198441,
      22.318615
    ],
    "Name": "红磡",
    "Address": "香港九龙区东南部",
    "District": "九龙区",
    "RoadInfo": "",
    "Poi": "东南部",
    "RoomInfo": ""
  },
  {
    "id": "M87",
    "行政区": "离岛区",
    "Location": [
      114.0461,
      22.308832
    ],
    "Name": "梅窝",
    "Address": "位于香港大屿山的东南部",
    "District": "大屿山",
    "RoadInfo": "",
    "Poi": "东南部",
    "RoomInfo": ""
  },
  {
    "id": "M88",
    "行政区": "黄大仙区",
    "Location": [
      114.210736,
      22.337977
    ],
    "Name": "志莲净苑",
    "Address": "香港九龙钻石山志莲道5号",
    "District": "钻石山",
    "RoadInfo": "志莲道5号",
    "Poi": "",
    "RoomInfo": ""
  },
  {
    "id": "M89",
    "行政区": "中西区",
    "Location": [
      114.161078,
      22.276122
    ],
    "Name": "香港动植物公园",
    "Address": "香港中环雅宾利道",
    "District": "中环",
    "RoadInfo": "雅宾利道",
    "Poi": "",
    "RoomInfo": ""
  },
  {
    "id": "M90",
    "行政区": "荃湾区",
    "Location": [
      114.030342,
      22.324927
    ],
    "Name": "小小世界",
    "Address": "香港香港迪士尼樂園度假區幻想世界园内",
    "District": "",
    "RoadInfo": "",
    "Poi": "幻想世界园内",
    "RoomInfo": ""
  },
  {
    "id": "M91",
    "行政区": "中西区",
    "Location": [
      114.168268,
      22.275589
    ],
    "Name": "香港特別行政区高等法院",
    "Address": "香港金钟道38号高等法院大楼",
    "District": "",
    "RoadInfo": "金钟道38号",
    "Poi": "高等法院大楼",
    "RoomInfo": ""
  },
  {
    "id": "M92",
    "行政区": "U",
    "Location": [
      null,
      null
    ],
    "Name": "香港城市大学",
    "Address": "特别行政区九龙Tat Chee Avenue, Hong Kong",
    "District": "九龙",
    "RoadInfo": "",
    "Poi": "Tat Chee Ave",
    "RoomInfo": ""
  },
  {
    "id": "M93",
    "行政区": "西贡区",
    "Location": [
      114.350213,
      22.398637
    ],
    "Name": "浪茄湾",
    "Address": "香港新界西贡东郊野公园(邻近万宜水库东坝)",
    "District": "西贡",
    "RoadInfo": "",
    "Poi": "东郊野公园万宜水库东坝",
    "RoomInfo": ""
  },
  {
    "id": "M94",
    "行政区": "西贡区",
    "Location": [
      114.264645,
      22.314213
    ],
    "Name": "西贡码头",
    "Address": "香港西贡区",
    "District": "西贡区",
    "RoadInfo": "",
    "Poi": "",
    "RoomInfo": ""
  },
  {
    "id": "M95",
    "行政区": "油尖旺区",
    "Location": [
      114.173799,
      22.306982
    ],
    "Name": "油麻地警署",
    "Address": "香港油麻地广东道627号",
    "District": "油麻地",
    "RoadInfo": "广东道627号",
    "Poi": "",
    "RoomInfo": ""
  },
  {
    "id": "M96",
    "行政区": "中西区",
    "Location": [
      114.155011,
      22.267498
    ],
    "Name": "太平山狮子亭",
    "Address": "香港山顶芬梨径",
    "District": "",
    "RoadInfo": "",
    "Poi": "山顶芬梨径",
    "RoomInfo": ""
  },
  {
    "id": "M97",
    "行政区": "中西区",
    "Location": [
      114.172919,
      22.275068
    ],
    "Name": "香港轩尼诗道",
    "Address": "香港特区轩尼诗道",
    "District": "特区",
    "RoadInfo": "轩尼诗道",
    "Poi": "",
    "RoomInfo": ""
  },
  {
    "id": "M98",
    "行政区": "南区",
    "Location": [
      114.215395,
      22.216037
    ],
    "Name": "赤柱美利楼",
    "Address": "香港赤柱赤柱大街96号",
    "District": "赤柱",
    "RoadInfo": "赤柱大街96号",
    "Poi": "",
    "RoomInfo": ""
  },
  {
    "id": "M99",
    "行政区": "荃湾区",
    "Location": [
      114.030342,
      22.324927
    ],
    "Name": "铁甲奇侠飞行之旅",
    "Address": "香港香港迪士尼乐园度假区",
    "District": "",
    "RoadInfo": "",
    "Poi": "香港迪士尼乐园度假区",
    "RoomInfo": ""
  },
  {
    "id": "M100",
    "行政区": "U",
    "Location": [
      114.163825,
      22.276284
    ],
    "Name": "南山邨",
    "Address": "香港南山村路，南山村路最佳地段",
    "District": "",
    "RoadInfo": "南山村路南山村路",
    "Poi": "最佳地段",
    "RoomInfo": ""
  },
  {
    "id": "M101",
    "行政区": "荃湾区",
    "Location": [
      114.030342,
      22.324927
    ],
    "Name": "飞天巡游",
    "Address": "香港香港迪士尼樂園度假區",
    "District": "",
    "RoadInfo": "",
    "Poi": "香港迪士尼樂園度假區",
    "RoomInfo": ""
  },
  {
    "id": "M102",
    "行政区": "南区",
    "Location": [
      114.244078,
      22.231849
    ],
    "Name": "石澳健康院",
    "Address": "香港南区石澳道石澳新村140号",
    "District": "南区石澳道",
    "RoadInfo": "",
    "Poi": "石澳新村",
    "RoomInfo": "140号"
  },
  {
    "id": "M103",
    "行政区": "东区",
    "Location": [
      114.194578,
      22.277137
    ],
    "Name": "香港中央图书馆",
    "Address": "香港特别行政区东区铜锣湾高士威道66号地下至6楼及8至10楼",
    "District": "东区",
    "RoadInfo": "高士威道66号",
    "Poi": "铜锣湾",
    "RoomInfo": "6楼"
  },
  {
    "id": "M104",
    "行政区": "中西区",
    "Location": [
      114.163257,
      22.282699
    ],
    "Name": "国际金融中心",
    "Address": "香港港景街1号",
    "District": "",
    "RoadInfo": "港景街1号",
    "Poi": "",
    "RoomInfo": ""
  },
  {
    "id": "M105",
    "行政区": "中西区",
    "Location": [
      114.164704,
      22.283659
    ],
    "Name": "中环9号码头",
    "Address": "香港中环民耀街7号中环码头连接大厦",
    "District": "中环",
    "RoadInfo": "民耀街7号",
    "Poi": "中环码头连接大厦",
    "RoomInfo": ""
  },
  {
    "id": "M106",
    "行政区": "荃湾区",
    "Location": [
      114.030342,
      22.324927
    ],
    "Name": "森林河流之旅",
    "Address": "香港香港迪士尼樂園度假區",
    "District": "",
    "RoadInfo": "",
    "Poi": "香港迪士尼樂園度假區",
    "RoomInfo": ""
  },
  {
    "id": "M107",
    "行政区": "中西区",
    "Location": [
      114.159314,
      22.281517
    ],
    "Name": "香港中环中心",
    "Address": "中国香港皇后大道中99号",
    "District": "",
    "RoadInfo": "皇后大道中99号",
    "Poi": "",
    "RoomInfo": ""
  },
  {
    "id": "M108",
    "行政区": "U",
    "Location": [
      114.163825,
      22.276284
    ],
    "Name": "坪石邨",
    "Address": "香港特别行政区观塘区九龙湾清水湾道",
    "District": "观塘区九龙湾",
    "RoadInfo": "清水湾道",
    "Poi": "",
    "RoomInfo": ""
  },
  {
    "id": "M109",
    "行政区": "离岛区",
    "Location": [
      113.945303,
      22.284456
    ],
    "Name": "愉景湾",
    "Address": "香港离岛区大屿山东北部（近迪士尼乐园）",
    "District": "离岛区",
    "RoadInfo": "",
    "Poi": "大屿山迪士尼乐园",
    "RoomInfo": ""
  },
  {
    "id": "M110",
    "行政区": "西贡区",
    "Location": [
      114.264645,
      22.314213
    ],
    "Name": "万宜水库",
    "Address": "香港特別行政区西贡区",
    "District": "西贡区",
    "RoadInfo": "",
    "Poi": "",
    "RoomInfo": ""
  },
  {
    "id": "M111",
    "行政区": "西贡区",
    "Location": [
      114.350213,
      22.398637
    ],
    "Name": "西贡大浪湾",
    "Address": "香港特别行政区西贡东郊野公园",
    "District": "西贡",
    "RoadInfo": "",
    "Poi": "东郊野公园",
    "RoomInfo": ""
  },
  {
    "id": "M112",
    "行政区": "中西区",
    "Location": [
      114.155813,
      22.279303
    ],
    "Name": "孙中山纪念馆",
    "Address": "香港岛中环卫城道7号",
    "District": "市岛中环",
    "RoadInfo": "卫城道7号",
    "Poi": "",
    "RoomInfo": ""
  },
  {
    "id": "M113",
    "行政区": "荃湾区",
    "Location": [
      114.030342,
      22.324927
    ],
    "Name": "迪士尼魔法书房",
    "Address": "香港香港迪士尼樂園度假區故事劇場",
    "District": "",
    "RoadInfo": "",
    "Poi": "香港迪士尼樂園度假區故事劇場",
    "RoomInfo": ""
  },
  {
    "id": "M114",
    "行政区": "荃湾区",
    "Location": [
      114.030342,
      22.324927
    ],
    "Name": "灰熊山极速矿车",
    "Address": "香港新界大屿山香港迪士尼乐园内",
    "District": "大屿山",
    "RoadInfo": "",
    "Poi": "香港迪士尼乐园",
    "RoomInfo": ""
  },
  {
    "id": "M115",
    "行政区": "中西区",
    "Location": [
      114.1591,
      22.279114
    ],
    "Name": "中区警署建筑群",
    "Address": "香港中環荷李活道10號",
    "District": "中環",
    "RoadInfo": "荷李活道10號",
    "Poi": "",
    "RoomInfo": ""
  },
  {
    "id": "M116",
    "行政区": "离岛区",
    "Location": [
      113.923753,
      22.246331
    ],
    "Name": "心经简林",
    "Address": "香港大屿山的凤凰山山坡",
    "District": "大屿山",
    "RoadInfo": "",
    "Poi": "凤凰山山坡",
    "RoomInfo": ""
  },
  {
    "id": "M117",
    "行政区": "荃湾区",
    "Location": [
      114.030342,
      22.324927
    ],
    "Name": "米奇幻想曲",
    "Address": "香港香港迪士尼樂園度假區幻想世界园内",
    "District": "",
    "RoadInfo": "",
    "Poi": "幻想世界园内",
    "RoomInfo": ""
  },
  {
    "id": "M118",
    "行政区": "离岛区",
    "Location": [
      113.946255,
      22.316257
    ],
    "Name": "亚洲国际博览馆",
    "Address": "香港特别行政区离岛区航展道",
    "District": "离岛区",
    "RoadInfo": "航展道",
    "Poi": "",
    "RoomInfo": ""
  },
  {
    "id": "M119",
    "行政区": "中西区",
    "Location": [
      114.141628,
      22.275799
    ],
    "Name": "山顶卢吉道",
    "Address": "香港特別行政區中西區克頓道附近",
    "District": "中西區",
    "RoadInfo": "克頓道",
    "Poi": "",
    "RoomInfo": ""
  },
  {
    "id": "M120",
    "行政区": "离岛区",
    "Location": [
      113.94359,
      22.287176
    ],
    "Name": "昂坪山",
    "Address": "香港大屿山东涌达东路11号",
    "District": "大屿山东涌",
    "RoadInfo": "达东路11号",
    "Poi": "",
    "RoomInfo": ""
  },
  {
    "id": "M121",
    "行政区": "九龙城区",
    "Location": [
      114.18999,
      22.307752
    ],
    "Name": "九龙寨城公园",
    "Address": "香港九龙城东正道",
    "District": "九龙城",
    "RoadInfo": "东正道",
    "Poi": "",
    "RoomInfo": ""
  },
  {
    "id": "M122",
    "行政区": "东区",
    "Location": [
      114.210486,
      22.2902
    ],
    "Name": "香港廉政公署",
    "Address": "香港北角渣华道303号廉政公署",
    "District": "北角",
    "RoadInfo": "渣华道303号",
    "Poi": "廉政公署",
    "RoomInfo": ""
  },
  {
    "id": "M123",
    "行政区": "大埔区",
    "Location": [
      114.151741,
      22.424711
    ],
    "Name": "张保仔洞",
    "Address": "香港长洲长洲家乐径",
    "District": "长洲",
    "RoadInfo": "",
    "Poi": "长洲家乐径",
    "RoomInfo": ""
  },
  {
    "id": "M124",
    "行政区": "荃湾区",
    "Location": [
      114.030342,
      22.324927
    ],
    "Name": "小熊维尼历险之旅",
    "Address": "香港香港迪士尼樂園度假區幻想世界园内",
    "District": "",
    "RoadInfo": "",
    "Poi": "幻想世界园内",
    "RoomInfo": ""
  },
  {
    "id": "M125",
    "行政区": "湾仔区",
    "Location": [
      114.188983,
      22.266227
    ],
    "Name": "跑马地",
    "Address": "香港特别行政区湾仔区跑马地",
    "District": "湾仔区",
    "RoadInfo": "",
    "Poi": "跑马地",
    "RoomInfo": ""
  },
  {
    "id": "M126",
    "行政区": "荃湾区",
    "Location": [
      114.030342,
      22.324927
    ],
    "Name": "睡公主城堡",
    "Address": "香港特别行政区离岛区大屿山香港迪士尼乐园内",
    "District": "离岛区大屿山",
    "RoadInfo": "",
    "Poi": "香港迪士尼乐园",
    "RoomInfo": ""
  },
  {
    "id": "M127",
    "行政区": "离岛区",
    "Location": [
      114.032579,
      22.209419
    ],
    "Name": "长洲渡轮码头",
    "Address": "香港特别行政区长洲岛中西部沿岸",
    "District": "长洲岛",
    "RoadInfo": "",
    "Poi": "中西部沿岸",
    "RoomInfo": ""
  },
  {
    "id": "M128",
    "行政区": "九龙城区",
    "Location": [
      114.18634,
      22.33256
    ],
    "Name": "香港浸会大学",
    "Address": "香港九龙塘联福道",
    "District": "九龙塘",
    "RoadInfo": "联福道",
    "Poi": "",
    "RoomInfo": ""
  },
  {
    "id": "M129",
    "行政区": "荃湾区",
    "Location": [
      114.121079,
      22.368307
    ],
    "Name": "大帽山",
    "Address": "香港新界荃湾区和元朗区交界",
    "District": "荃湾区元朗区",
    "RoadInfo": "",
    "Poi": "交界",
    "RoomInfo": ""
  },
  {
    "id": "M130",
    "行政区": "中西区",
    "Location": [
      114.155228,
      22.281204
    ],
    "Name": "文武庙",
    "Address": "香港太平山荷李活道124-126号",
    "District": "太平山",
    "RoadInfo": "荷李活道124-126号",
    "Poi": "",
    "RoomInfo": ""
  },
  {
    "id": "M131",
    "行政区": "U",
    "Location": [
      114.163825,
      22.276284
    ],
    "Name": "东平洲海岸公园",
    "Address": "香港东北的岛屿，位于大鹏湾，属大埔区。",
    "District": "大埔区",
    "RoadInfo": "",
    "Poi": "大鹏湾",
    "RoomInfo": ""
  },
  {
    "id": "M132",
    "行政区": "湾仔区",
    "Location": [
      114.182915,
      22.276389
    ],
    "Name": "皇后大道西",
    "Address": "香港湾仔区西环",
    "District": "湾仔区",
    "RoadInfo": "",
    "Poi": "西环",
    "RoomInfo": ""
  },
  {
    "id": "M133",
    "行政区": "元朗区",
    "Location": [
      114.032438,
      22.441428
    ],
    "Name": "天水围",
    "Address": "香港新界元朗区",
    "District": "元朗区",
    "RoadInfo": "",
    "Poi": "",
    "RoomInfo": ""
  },
  {
    "id": "M134",
    "行政区": "荃湾区",
    "Location": [
      114.121079,
      22.368307
    ],
    "Name": "城门水塘",
    "Address": "香港特别行政区荃湾区",
    "District": "荃湾区",
    "RoadInfo": "",
    "Poi": "",
    "RoomInfo": ""
  },
  {
    "id": "M135",
    "行政区": "大埔区",
    "Location": [
      114.147434,
      22.453277
    ],
    "Name": "林村许愿树",
    "Address": "香港新界大埔林村",
    "District": "大埔林村",
    "RoadInfo": "",
    "Poi": "",
    "RoomInfo": ""
  },
  {
    "id": "M136",
    "行政区": "油尖旺区",
    "Location": [
      114.175339,
      22.305173
    ],
    "Name": "庙街天后宫",
    "Address": "香港特别行政区油尖旺区九龙油麻地庙街",
    "District": "油尖旺区九龙",
    "RoadInfo": "油麻地庙街",
    "Poi": "",
    "RoomInfo": ""
  },
  {
    "id": "M137",
    "行政区": "西贡区",
    "Location": [
      114.273724,
      22.314015
    ],
    "Name": "将军澳",
    "Address": "香港特别行政区新界西贡区将军澳",
    "District": "西贡区将军澳",
    "RoadInfo": "",
    "Poi": "",
    "RoomInfo": ""
  },
  {
    "id": "M138",
    "行政区": "中西区",
    "Location": [
      114.162806,
      22.277789
    ],
    "Name": "皇后大道中",
    "Address": "香港皇后大道中",
    "District": "",
    "RoadInfo": "皇后大道",
    "Poi": "",
    "RoomInfo": ""
  },
  {
    "id": "M139",
    "行政区": "U",
    "Location": [
      114.173355,
      22.320048
    ],
    "Name": "砵兰街",
    "Address": "中国香港",
    "District": "",
    "RoadInfo": "",
    "Poi": "",
    "RoomInfo": ""
  },
  {
    "id": "M140",
    "行政区": "荃湾区",
    "Location": [
      114.030342,
      22.324927
    ],
    "Name": "迷离大宅",
    "Address": "香港香港迪士尼樂園度假區迷离庄园内",
    "District": "",
    "RoadInfo": "",
    "Poi": "迷离庄园",
    "RoomInfo": ""
  },
  {
    "id": "M141",
    "行政区": "西贡区",
    "Location": [
      114.277582,
      22.277929
    ],
    "Name": "电视广播城",
    "Address": "香港将军澳工业邨骏才街77号",
    "District": "",
    "RoadInfo": "骏才街77号",
    "Poi": "",
    "RoomInfo": ""
  },
  {
    "id": "M142",
    "行政区": "西贡区",
    "Location": [
      114.264645,
      22.314213
    ],
    "Name": "东龙洲",
    "Address": "香港西贡区南部的南塘海峡",
    "District": "西贡区",
    "RoadInfo": "",
    "Poi": "南塘海峡",
    "RoomInfo": ""
  },
  {
    "id": "M143",
    "行政区": "离岛区",
    "Location": [
      114.021362,
      22.305926
    ],
    "Name": "冲天遥控车",
    "Address": "香港新界大屿山香港迪士尼度假区",
    "District": "大屿山",
    "RoadInfo": "",
    "Poi": "香港迪士尼度假区",
    "RoomInfo": ""
  },
  {
    "id": "M144",
    "行政区": "离岛区",
    "Location": [
      113.94612,
      22.286408
    ],
    "Name": "坪洲",
    "Address": "香港特别行政区离岛区",
    "District": "离岛区",
    "RoadInfo": "",
    "Poi": "",
    "RoomInfo": ""
  },
  {
    "id": "M145",
    "行政区": "中西区",
    "Location": [
      114.15852,
      22.278679
    ],
    "Name": "域多利监狱",
    "Address": "香港岛中环奥卑利街16号",
    "District": "市岛中环",
    "RoadInfo": "奥卑利街16号",
    "Poi": "",
    "RoomInfo": ""
  },
  {
    "id": "M146",
    "行政区": "中西区",
    "Location": [
      114.153622,
      22.280762
    ],
    "Name": "香港医学博物馆",
    "Address": "香港岛中西区上环及半山区之间的坚巷2号",
    "District": "中西区",
    "RoadInfo": "的坚巷2号",
    "Poi": "上环半山区",
    "RoomInfo": ""
  },
  {
    "id": "M147",
    "行政区": "U",
    "Location": [
      114.163825,
      22.276284
    ],
    "Name": "八仙岭郊野公园",
    "Address": "香港",
    "District": "",
    "RoadInfo": "",
    "Poi": "",
    "RoomInfo": ""
  },
  {
    "id": "M148",
    "行政区": "湾仔区",
    "Location": [
      114.197117,
      22.256951
    ],
    "Name": "港岛径",
    "Address": "香港大潭港岛径",
    "District": "大潭",
    "RoadInfo": "",
    "Poi": "港岛径",
    "RoomInfo": ""
  },
  {
    "id": "M149",
    "行政区": "观塘区",
    "Location": [
      114.24196,
      22.292654
    ],
    "Name": "观塘鲤鱼门",
    "Address": "香港特别行政区观塘区新界油塘工业区东南（港岛东区）",
    "District": "观塘区新界",
    "RoadInfo": "",
    "Poi": "港岛东区",
    "RoomInfo": ""
  },
  {
    "id": "M150",
    "行政区": "湾仔区",
    "Location": [
      114.177267,
      22.272791
    ],
    "Name": "利东街",
    "Address": "香港特别行政区湾仔区利东街",
    "District": "湾仔区",
    "RoadInfo": "利东街",
    "Poi": "",
    "RoomInfo": ""
  },
  {
    "id": "M151",
    "行政区": "湾仔区",
    "Location": [
      114.185715,
      22.268602
    ],
    "Name": "香港赛马博物馆",
    "Address": "香港跑马地马场快活看台2楼",
    "District": "",
    "RoadInfo": "",
    "Poi": "跑马地马场快活看台",
    "RoomInfo": "2楼"
  },
  {
    "id": "M152",
    "行政区": "沙田区",
    "Location": [
      114.195365,
      22.379532
    ],
    "Name": "香港沙田区马鞍山",
    "Address": "香港十八区沙田区",
    "District": "十八区",
    "RoadInfo": "",
    "Poi": "沙田区",
    "RoomInfo": ""
  },
  {
    "id": "M153",
    "行政区": "湾仔区",
    "Location": [
      114.179049,
      22.271164
    ],
    "Name": "湾仔蓝屋",
    "Address": "岛湾仔石水渠街72、72A、74、74A号",
    "District": "岛湾仔",
    "RoadInfo": "石水渠街",
    "Poi": "72、72A、74、74A号",
    "RoomInfo": ""
  },
  {
    "id": "M154",
    "行政区": "大埔区",
    "Location": [
      114.12817,
      22.421469
    ],
    "Name": "嘉道理农场",
    "Address": "香港大埔林村林锦路嘉道理农场内",
    "District": "大埔林村",
    "RoadInfo": "林锦路",
    "Poi": "嘉道理农场",
    "RoomInfo": ""
  },
  {
    "id": "M155",
    "行政区": "南区",
    "Location": [
      114.259616,
      22.226107
    ],
    "Name": "石澳情人桥",
    "Address": "香港石澳山仔路",
    "District": "石澳",
    "RoadInfo": "山仔路",
    "Poi": "",
    "RoomInfo": ""
  },
  {
    "id": "M156",
    "行政区": "北区",
    "Location": [
      114.147364,
      22.496104
    ],
    "Name": "香港落马洲",
    "Address": "中国香港新界北区",
    "District": "北区",
    "RoadInfo": "",
    "Poi": "",
    "RoomInfo": ""
  },
  {
    "id": "M157",
    "行政区": "南区",
    "Location": [
      114.193094,
      22.238504
    ],
    "Name": "深水湾",
    "Address": "香港南区香岛道",
    "District": "南区",
    "RoadInfo": "香岛道",
    "Poi": "",
    "RoomInfo": ""
  },
  {
    "id": "M158",
    "行政区": "西贡区",
    "Location": [
      114.298563,
      22.361749
    ],
    "Name": "香港半月湾",
    "Address": "香港特别行政区西贡区新界西贡区桥咀洲",
    "District": "西贡区西贡区桥咀洲",
    "RoadInfo": "",
    "Poi": "",
    "RoomInfo": ""
  },
  {
    "id": "M159",
    "行政区": "南区",
    "Location": [
      114.180448,
      22.242645
    ],
    "Name": "登山缆车",
    "Address": "香港特別行政区南区香港岛香港仔海洋公园内",
    "District": "特別行政区",
    "RoadInfo": "",
    "Poi": "南区香港岛香港仔海洋公园",
    "RoomInfo": ""
  },
  {
    "id": "M160",
    "行政区": "中西区",
    "Location": [
      114.153447,
      22.282856
    ],
    "Name": "楼梯街",
    "Address": "香港香港岛湾仔区荷李活道",
    "District": "湾仔区",
    "RoadInfo": "荷李活道",
    "Poi": "",
    "RoomInfo": ""
  },
  {
    "id": "M161",
    "行政区": "中西区",
    "Location": [
      114.162806,
      22.277789
    ],
    "Name": "汇丰银行",
    "Address": "香港皇后大道中",
    "District": "",
    "RoadInfo": "皇后大道",
    "Poi": "",
    "RoomInfo": ""
  },
  {
    "id": "M162",
    "行政区": "离岛区",
    "Location": [
      114.004722,
      22.268828
    ],
    "Name": "梅窝码头",
    "Address": "香港大屿山银矿湾",
    "District": "大屿山",
    "RoadInfo": "",
    "Poi": "银矿湾",
    "RoomInfo": ""
  },
  {
    "id": "M163",
    "行政区": "U",
    "Location": [
      114.163825,
      22.276284
    ],
    "Name": "大坑",
    "Address": "香港",
    "District": "",
    "RoadInfo": "",
    "Poi": "",
    "RoomInfo": ""
  },
  {
    "id": "M164",
    "行政区": "油尖旺区",
    "Location": [
      114.177238,
      22.292747
    ],
    "Name": "香港双层巴士观光",
    "Address": "特别行政区油尖旺区尖沙咀汉口道半岛酒店和YMCA中间尖沙咀地铁站L4出口",
    "District": "油尖旺区尖沙咀",
    "RoadInfo": "汉口道",
    "Poi": "半岛酒店YMCA尖沙咀地铁站L4出口",
    "RoomInfo": ""
  },
  {
    "id": "M165",
    "行政区": "南区",
    "Location": [
      114.180448,
      22.242645
    ],
    "Name": "大熊猫之旅",
    "Address": "香港特別行政区南区香港岛香港仔海洋公园内",
    "District": "特別行政区",
    "RoadInfo": "",
    "Poi": "南区香港岛香港仔海洋公园",
    "RoomInfo": ""
  },
  {
    "id": "M166",
    "行政区": "荃湾区",
    "Location": [
      114.030342,
      22.324927
    ],
    "Name": "灰姑娘旋转木马",
    "Address": "香港香港迪士尼樂園度假區幻想世界园内",
    "District": "",
    "RoadInfo": "",
    "Poi": "幻想世界园内",
    "RoomInfo": ""
  },
  {
    "id": "M167",
    "行政区": "湾仔区",
    "Location": [
      114.18129,
      22.279232
    ],
    "Name": "香港回归祖国纪念碑",
    "Address": "香港湾仔博览道1号会议展览中心",
    "District": "湾仔",
    "RoadInfo": "博览道1号",
    "Poi": "会议展览中心",
    "RoomInfo": ""
  },
  {
    "id": "M168",
    "行政区": "南区",
    "Location": [
      114.222641,
      22.20871
    ],
    "Name": "赤柱监狱",
    "Address": "香港香港岛南区赤柱东头湾道99号",
    "District": "南区赤柱",
    "RoadInfo": "东头湾道99号",
    "Poi": "",
    "RoomInfo": ""
  },
  {
    "id": "M169",
    "行政区": "油尖旺区",
    "Location": [
      114.175116,
      22.311951
    ],
    "Name": "旺角东京银座广场",
    "Address": "香港旺角弥敦道565-567号",
    "District": "旺角",
    "RoadInfo": "弥敦道565-567号",
    "Poi": "",
    "RoomInfo": ""
  },
  {
    "id": "M170",
    "行政区": "南区",
    "Location": [
      114.248337,
      22.218634
    ],
    "Name": "鹤咀海岸保护区",
    "Address": "香港南区鹤咀半岛南端",
    "District": "南区",
    "RoadInfo": "",
    "Poi": "鹤咀半岛",
    "RoomInfo": ""
  },
  {
    "id": "M171",
    "行政区": "油尖旺区",
    "Location": [
      114.179404,
      22.299491
    ],
    "Name": "香港天文台",
    "Address": "尖沙咀弥敦道134A号",
    "District": "",
    "RoadInfo": "弥敦道134A号",
    "Poi": "",
    "RoomInfo": ""
  },
  {
    "id": "M172",
    "行政区": "荃湾区",
    "Location": [
      114.064342,
      22.348773
    ],
    "Name": "太阳馆",
    "Address": "香港荃湾马湾体育路",
    "District": "荃湾",
    "RoadInfo": "马湾体育路",
    "Poi": "",
    "RoomInfo": ""
  },
  {
    "id": "M173",
    "行政区": "油尖旺区",
    "Location": [
      114.174069,
      22.293455
    ],
    "Name": "海港城·美术馆",
    "Address": "香港特别行政区油尖旺区广东道5号海洋中心2阶(近20号铺)",
    "District": "油尖旺区",
    "RoadInfo": "广东道5号",
    "Poi": "海洋中心",
    "RoomInfo": "2阶20号铺"
  },
  {
    "id": "M174",
    "行政区": "中西区",
    "Location": [
      114.166562,
      22.279676
    ],
    "Name": "中国人民解放军驻香港部队大厦",
    "Address": "香港特别行政区湾仔区爱丁堡广场",
    "District": "湾仔区",
    "RoadInfo": "",
    "Poi": "爱丁堡广场",
    "RoomInfo": ""
  },
  {
    "id": "M175",
    "行政区": "中西区",
    "Location": [
      114.152769,
      22.281649
    ],
    "Name": "Poho区",
    "Address": "香港特别行政区中西区普庆坊、太平山街、磅巷区域",
    "District": "中西区",
    "RoadInfo": "普庆坊太平山街磅巷",
    "Poi": "区域",
    "RoomInfo": ""
  },
  {
    "id": "M176",
    "行政区": "中西区",
    "Location": [
      114.164772,
      22.282318
    ],
    "Name": "香港金融管理局",
    "Address": "中国香港中环金融街8号国际金融中心二期55楼",
    "District": "中环",
    "RoadInfo": "金融街8号",
    "Poi": "国际金融中心二期",
    "RoomInfo": "55楼"
  },
  {
    "id": "M177",
    "行政区": "屯门区",
    "Location": [
      113.979363,
      22.393569
    ],
    "Name": "大围车公庙",
    "Address": "香港新界沙田区大围",
    "District": "沙田区",
    "RoadInfo": "",
    "Poi": "大围",
    "RoomInfo": ""
  },
  {
    "id": "M178",
    "行政区": "中西区",
    "Location": [
      114.168308,
      22.276772
    ],
    "Name": "力宝中心",
    "Address": "香港中西区金钟道89号",
    "District": "中西区",
    "RoadInfo": "金钟道89号",
    "Poi": "",
    "RoomInfo": ""
  },
  {
    "id": "M179",
    "行政区": "油尖旺区",
    "Location": [
      114.173021,
      22.292446
    ],
    "Name": "丽星游轮",
    "Address": "香港海运大厦",
    "District": "",
    "RoadInfo": "",
    "Poi": "海运大厦",
    "RoomInfo": ""
  },
  {
    "id": "M180",
    "行政区": "U",
    "Location": [
      114.173355,
      22.320048
    ],
    "Name": "大榄郊野公园",
    "Address": "中国香港",
    "District": "",
    "RoadInfo": "",
    "Poi": "",
    "RoomInfo": ""
  },
  {
    "id": "M181",
    "行政区": "南区",
    "Location": [
      114.14094,
      22.261037
    ],
    "Name": "薄扶林郊野公园",
    "Address": "香港薄扶林水塘道",
    "District": "",
    "RoadInfo": "薄扶林水塘道",
    "Poi": "",
    "RoomInfo": ""
  },
  {
    "id": "M182",
    "行政区": "沙田区",
    "Location": [
      114.150781,
      22.366297
    ],
    "Name": "金山郊野公园",
    "Address": "香港新界东沙田区金山路",
    "District": "沙田区",
    "RoadInfo": "金山路",
    "Poi": "",
    "RoomInfo": ""
  },
  {
    "id": "M183",
    "行政区": "九龙城区",
    "Location": [
      114.192847,
      22.31251
    ],
    "Name": "九龙城广场",
    "Address": "中国香港九龙",
    "District": "九龙",
    "RoadInfo": "",
    "Poi": "",
    "RoomInfo": ""
  },
  {
    "id": "M184",
    "行政区": "湾仔区",
    "Location": [
      114.188983,
      22.266227
    ],
    "Name": "跑马地夜场赛马",
    "Address": "香港跑马地体育道",
    "District": "",
    "RoadInfo": "跑马地体育道",
    "Poi": "",
    "RoomInfo": ""
  },
  {
    "id": "M185",
    "行政区": "荃湾区",
    "Location": [
      114.030342,
      22.324927
    ],
    "Name": "小飞象旋转世界",
    "Address": "香港特别行政区离岛区迪士尼乐园幻想世界附近",
    "District": "离岛区",
    "RoadInfo": "",
    "Poi": "迪士尼乐园幻想世界",
    "RoomInfo": ""
  },
  {
    "id": "M186",
    "行政区": "深水埗区",
    "Location": [
      114.147225,
      22.336575
    ],
    "Name": "饶宗颐文化馆",
    "Address": "香港青山道800号",
    "District": "",
    "RoadInfo": "青山道800号",
    "Poi": "",
    "RoomInfo": ""
  },
  {
    "id": "M187",
    "行政区": "中西区",
    "Location": [
      114.150929,
      22.28129
    ],
    "Name": "香港大学本部大楼",
    "Address": "香港龍虎山般咸道",
    "District": "龍虎山",
    "RoadInfo": "般咸道",
    "Poi": "",
    "RoomInfo": ""
  },
  {
    "id": "M188",
    "行政区": "湾仔区",
    "Location": [
      114.176013,
      22.273451
    ],
    "Name": "和昌大押",
    "Address": "香港湾仔庄士敦道60-66号",
    "District": "湾仔庄",
    "RoadInfo": "士敦道60-66号",
    "Poi": "",
    "RoomInfo": ""
  },
  {
    "id": "M189",
    "行政区": "中西区",
    "Location": [
      114.164311,
      22.274062
    ],
    "Name": "香港视觉艺术中心",
    "Address": "中国坚尼地道中7A",
    "District": "",
    "RoadInfo": "坚尼地道",
    "Poi": "",
    "RoomInfo": ""
  },
  {
    "id": "M190",
    "行政区": "东区",
    "Location": [
      114.227828,
      22.28466
    ],
    "Name": "葛量洪号灭火轮展览馆",
    "Address": "香港东区鲗鱼涌公园内",
    "District": "东区",
    "RoadInfo": "",
    "Poi": "鲗鱼涌公园",
    "RoomInfo": ""
  },
  {
    "id": "M191",
    "行政区": "东区",
    "Location": [
      114.197528,
      22.279408
    ],
    "Name": "铜锣湾天后庙",
    "Address": "香港特别行政区东区铜锣湾天后庙道10号",
    "District": "东区铜锣湾",
    "RoadInfo": "天后庙道10号",
    "Poi": "",
    "RoomInfo": ""
  },
  {
    "id": "M192",
    "行政区": "U",
    "Location": [
      114.163825,
      22.276284
    ],
    "Name": "西贡东郊野公园",
    "Address": "香港新界东西贡区西贡半岛",
    "District": "西贡区",
    "RoadInfo": "",
    "Poi": "西贡半岛",
    "RoomInfo": ""
  },
  {
    "id": "M193",
    "行政区": "屯门区",
    "Location": [
      113.979363,
      22.393569
    ],
    "Name": "大刀屻",
    "Address": "香港新界",
    "District": "",
    "RoadInfo": "",
    "Poi": "",
    "RoomInfo": ""
  },
  {
    "id": "M194",
    "行政区": "油尖旺区",
    "Location": [
      114.175991,
      22.306712
    ],
    "Name": "九龙中央邮政局",
    "Address": "香港佐敦彌敦道405號",
    "District": "佐敦",
    "RoadInfo": "彌敦道405號",
    "Poi": "",
    "RoomInfo": ""
  },
  {
    "id": "M195",
    "行政区": "中西区",
    "Location": [
      114.173021,
      22.279496
    ],
    "Name": "友邦欧陆嘉年华",
    "Address": "香港龙和道中9号",
    "District": "",
    "RoadInfo": "龙和道中9号",
    "Poi": "",
    "RoomInfo": ""
  },
  {
    "id": "M196",
    "行政区": "油尖旺区",
    "Location": [
      114.174776,
      22.293346
    ],
    "Name": "北京道1號",
    "Address": "香港特别行政区湾仔区尖沙咀北京道1号28楼",
    "District": "湾仔区尖沙咀",
    "RoadInfo": "北京道1号",
    "Poi": "",
    "RoomInfo": "28楼"
  },
  {
    "id": "M197",
    "行政区": "油尖旺区",
    "Location": [
      114.177729,
      22.291757
    ],
    "Name": "Hello Kitty咖啡馆",
    "Address": "特别行政区湾仔区铜锣湾轩尼诗道555号崇光百货B2层B12铺",
    "District": "铜锣湾",
    "RoadInfo": "轩尼诗道555号",
    "Poi": "崇光百货B2层B12铺",
    "RoomInfo": ""
  },
  {
    "id": "M198",
    "行政区": "南区",
    "Location": [
      114.217876,
      22.215698
    ],
    "Name": "赤柱旧警署",
    "Address": "香港岛赤柱赤柱村道88号",
    "District": "赤柱",
    "RoadInfo": "赤柱村道88号",
    "Poi": "",
    "RoomInfo": ""
  },
  {
    "id": "M199",
    "行政区": "离岛区",
    "Location": [
      114.136525,
      22.202046
    ],
    "Name": "南丫岛渔民文化村",
    "Address": "香港离岛区南丫岛索罟湾第一街",
    "District": "离岛区南丫岛索罟湾",
    "RoadInfo": "第一街",
    "Poi": "",
    "RoomInfo": ""
  },
  {
    "id": "M200",
    "行政区": "西贡区",
    "Location": [
      114.264645,
      22.314213
    ],
    "Name": "蚺蛇湾",
    "Address": "香港西贡东北海湾",
    "District": "西贡",
    "RoadInfo": "",
    "Poi": "东北海湾",
    "RoomInfo": ""
  },
  {
    "id": "M201",
    "行政区": "北区",
    "Location": [
      114.150052,
      22.497834
    ],
    "Name": "粉岭龙跃头文物径",
    "Address": "香港新界粉岭联和墟东北的龙跃头",
    "District": "粉岭龙跃头",
    "RoadInfo": "",
    "Poi": "联和墟",
    "RoomInfo": ""
  },
  {
    "id": "M202",
    "行政区": "离岛区",
    "Location": [
      114.046415,
      22.307605
    ],
    "Name": "喷泉山谷",
    "Address": "香港特别行政区离岛区大屿山香港迪士尼乐园灰熊山谷内",
    "District": "离岛区大屿山",
    "RoadInfo": "",
    "Poi": "香港迪士尼乐园灰熊山谷",
    "RoomInfo": ""
  },
  {
    "id": "M203",
    "行政区": "荃湾区",
    "Location": [
      114.030342,
      22.324927
    ],
    "Name": "梦想花园",
    "Address": "香港大屿山香港迪士尼乐园幻想世界内",
    "District": "大屿山",
    "RoadInfo": "",
    "Poi": "香港迪士尼乐园幻想世界",
    "RoomInfo": ""
  },
  {
    "id": "M204",
    "行政区": "中西区",
    "Location": [
      114.153447,
      22.282856
    ],
    "Name": "荷李活道公园",
    "Address": "香港上环荷李活道在水坑口街的西面",
    "District": "上环",
    "RoadInfo": "荷李活道水坑口街",
    "Poi": "",
    "RoomInfo": ""
  },
  {
    "id": "M205",
    "行政区": "中西区",
    "Location": [
      114.159624,
      22.279909
    ],
    "Name": "中环摆花街",
    "Address": "香港中西区摆花街",
    "District": "中西区",
    "RoadInfo": "摆花街",
    "Poi": "",
    "RoomInfo": ""
  },
  {
    "id": "M206",
    "行政区": "九龙城区",
    "Location": [
      114.192847,
      22.31251
    ],
    "Name": "钻石山",
    "Address": "中国香港九龙",
    "District": "九龙",
    "RoadInfo": "",
    "Poi": "",
    "RoomInfo": ""
  },
  {
    "id": "M207",
    "行政区": "荃湾区",
    "Location": [
      114.030342,
      22.324927
    ],
    "Name": "疯帽子旋转杯",
    "Address": "香港特别行政区离岛区大屿山香港迪士尼乐园幻想世界内",
    "District": "离岛区大屿山",
    "RoadInfo": "",
    "Poi": "香港迪士尼乐园幻想世界内",
    "RoomInfo": ""
  },
  {
    "id": "M208",
    "行政区": "大埔区",
    "Location": [
      114.262319,
      22.428254
    ],
    "Name": "泥涌石滩",
    "Address": "香港西贡泥涌旧村",
    "District": "西贡",
    "RoadInfo": "",
    "Poi": "泥涌旧村",
    "RoomInfo": ""
  },
  {
    "id": "M209",
    "行政区": "荃湾区",
    "Location": [
      114.030342,
      22.324927
    ],
    "Name": "太空飞碟",
    "Address": "香港大屿山香港迪士尼乐园明日世界内",
    "District": "大屿山",
    "RoadInfo": "",
    "Poi": "香港迪士尼乐园明日世界内",
    "RoomInfo": ""
  },
  {
    "id": "M210",
    "行政区": "中西区",
    "Location": [
      114.162598,
      22.285182
    ],
    "Name": "人力车观光巴士",
    "Address": "香港中环民光街人力车观光巴士",
    "District": "中环",
    "RoadInfo": "民光街",
    "Poi": "人力车观光巴士",
    "RoomInfo": ""
  },
  {
    "id": "M211",
    "行政区": "荃湾区",
    "Location": [
      114.030342,
      22.324927
    ],
    "Name": "星球大战:指挥站",
    "Address": "香港新界大屿山香港迪士尼乐园内",
    "District": "大屿山",
    "RoadInfo": "",
    "Poi": "香港迪士尼乐园",
    "RoomInfo": ""
  },
  {
    "id": "M212",
    "行政区": "中西区",
    "Location": [
      114.154101,
      22.282641
    ],
    "Name": "摩罗上街",
    "Address": "香港中西区摩罗上街",
    "District": "中西区",
    "RoadInfo": "摩罗上街",
    "Poi": "",
    "RoomInfo": ""
  },
  {
    "id": "M213",
    "行政区": "西贡区",
    "Location": [
      114.379002,
      22.360204
    ],
    "Name": "万宜水库东坝",
    "Address": "特别行政区西贡区万宜水库东坝SaiKung",
    "District": "西贡区",
    "RoadInfo": "",
    "Poi": "万宜水库",
    "RoomInfo": ""
  },
  {
    "id": "M214",
    "行政区": "西贡区",
    "Location": [
      114.264645,
      22.314213
    ],
    "Name": "蚺蛇坳",
    "Address": "香港特别行政区西贡区蚺蛇尖径",
    "District": "西贡区",
    "RoadInfo": "",
    "Poi": "蚺蛇尖径",
    "RoomInfo": ""
  },
  {
    "id": "M215",
    "行政区": "南区",
    "Location": [
      114.17607,
      22.231469
    ],
    "Name": "海洋公园冰极天地",
    "Address": "香港特别行政区香港岛南区南朗山黄竹坑道180号香港海洋公园内",
    "District": "南区南朗山",
    "RoadInfo": "黄竹坑道180号",
    "Poi": "香港海洋公园",
    "RoomInfo": ""
  },
  {
    "id": "M216",
    "行政区": "南区",
    "Location": [
      114.253708,
      22.232214
    ],
    "Name": "石澳后滩泳滩",
    "Address": "香港特别行政区南区石澳石澳道",
    "District": "南区石澳",
    "RoadInfo": "石澳道",
    "Poi": "",
    "RoomInfo": ""
  },
  {
    "id": "M217",
    "行政区": "荃湾区",
    "Location": [
      114.030342,
      22.324927
    ],
    "Name": "绝地圣殿武士特训",
    "Address": "香港新界大屿山香港迪士尼乐园内",
    "District": "大屿山",
    "RoadInfo": "",
    "Poi": "香港迪士尼乐园",
    "RoomInfo": ""
  },
  {
    "id": "M218",
    "行政区": "沙田区",
    "Location": [
      114.241326,
      22.425212
    ],
    "Name": "乌溪沙青年新村",
    "Address": "香港鞍骏街2号",
    "District": "",
    "RoadInfo": "鞍骏街2号",
    "Poi": "",
    "RoomInfo": ""
  },
  {
    "id": "M219",
    "行政区": "离岛区",
    "Location": [
      114.045649,
      22.303315
    ],
    "Name": "迪斯尼乐园花园",
    "Address": "香港特别行政区离岛区海滨长廊附近",
    "District": "离岛区",
    "RoadInfo": "",
    "Poi": "海滨长廊",
    "RoomInfo": ""
  },
  {
    "id": "M220",
    "行政区": "南区",
    "Location": [
      114.176606,
      22.244567
    ],
    "Name": "香港警察训练学院",
    "Address": "香港黄竹坑海洋公园道18号",
    "District": "黄竹坑",
    "RoadInfo": "海洋公园道18号",
    "Poi": "",
    "RoomInfo": ""
  },
  {
    "id": "M221",
    "行政区": "元朗区",
    "Location": [
      114.032438,
      22.441428
    ],
    "Name": "关帝庙",
    "Address": "中国香港元朗区关帝庙",
    "District": "元朗区",
    "RoadInfo": "",
    "Poi": "关帝庙",
    "RoomInfo": ""
  },
  {
    "id": "M222",
    "行政区": "荃湾区",
    "Location": [
      114.131012,
      22.377111
    ],
    "Name": "香海慈航",
    "Address": "香港荃湾老围村三叠潭",
    "District": "荃湾老围村",
    "RoadInfo": "",
    "Poi": "三叠潭",
    "RoomInfo": ""
  },
  {
    "id": "M223",
    "行政区": "湾仔区",
    "Location": [
      114.178833,
      22.270299
    ],
    "Name": "湾仔北帝庙",
    "Address": "中国香港湾仔区北帝庙",
    "District": "湾仔区",
    "RoadInfo": "",
    "Poi": "北帝庙",
    "RoomInfo": ""
  },
  {
    "id": "M224",
    "行政区": "离岛区",
    "Location": [
      114.115402,
      22.224393
    ],
    "Name": "榕树湾渡轮码头",
    "Address": "香港特别行政区离岛区南丫岛榕树湾大街2号",
    "District": "离岛区南丫岛",
    "RoadInfo": "榕树湾大街2号",
    "Poi": "",
    "RoomInfo": ""
  },
  {
    "id": "M225",
    "行政区": "沙田区",
    "Location": [
      114.20723,
      22.391221
    ],
    "Name": "香港体育学院",
    "Address": "香港沙田源禾路25号",
    "District": "沙田",
    "RoadInfo": "源禾路25号",
    "Poi": "",
    "RoomInfo": ""
  },
  {
    "id": "M226",
    "行政区": "元朗区",
    "Location": [
      114.001376,
      22.443533
    ],
    "Name": "洪圣庙",
    "Address": "香港元朗屏厦路",
    "District": "元朗",
    "RoadInfo": "屏厦路",
    "Poi": "",
    "RoomInfo": ""
  },
  {
    "id": "M227",
    "行政区": "油尖旺区",
    "Location": [
      114.174612,
      22.290306
    ],
    "Name": "梦之旅游船",
    "Address": "香港尖沙咀4号公众码头",
    "District": "尖沙咀",
    "RoadInfo": "",
    "Poi": "4号公众码头",
    "RoomInfo": ""
  },
  {
    "id": "M228",
    "行政区": "元朗区",
    "Location": [
      114.032278,
      22.404652
    ],
    "Name": "大棠荔枝山庄",
    "Address": "新界元朗十八乡大棠山道11号Yuen Long",
    "District": "十八乡",
    "RoadInfo": "大棠山道11号",
    "Poi": "",
    "RoomInfo": "Yu"
  },
  {
    "id": "M229",
    "行政区": "黄大仙区",
    "Location": [
      114.210753,
      22.336956
    ],
    "Name": "斧山公园",
    "Address": "香港特别行政区黄大仙区上元岭凤德道60号",
    "District": "黄大仙区上元岭",
    "RoadInfo": "凤德道60号",
    "Poi": "",
    "RoomInfo": ""
  },
  {
    "id": "M230",
    "行政区": "九龙城区",
    "Location": [
      114.174071,
      22.322391
    ],
    "Name": "旺角警署",
    "Address": "香港特别行政区油尖旺区太子道西142号",
    "District": "油尖旺区",
    "RoadInfo": "太子道西142号",
    "Poi": "",
    "RoomInfo": ""
  },
  {
    "id": "M231",
    "行政区": "荃湾区",
    "Location": [
      114.030342,
      22.324927
    ],
    "Name": "转转弹弓狗",
    "Address": "香港特别行政区离岛区大屿山香港迪士尼乐园反斗奇兵大本营",
    "District": "离岛区",
    "RoadInfo": "",
    "Poi": "大屿山香港迪士尼乐园反斗奇兵大本营",
    "RoomInfo": ""
  },
  {
    "id": "M232",
    "行政区": "南区",
    "Location": [
      114.13412,
      22.265194
    ],
    "Name": "华富邨",
    "Address": "香港岛南区薄扶林",
    "District": "岛南区",
    "RoadInfo": "",
    "Poi": "薄扶林",
    "RoomInfo": ""
  },
  {
    "id": "M233",
    "行政区": "U",
    "Location": [
      114.163825,
      22.276284
    ],
    "Name": "贵妃池",
    "Address": "香港",
    "District": "",
    "RoadInfo": "",
    "Poi": "",
    "RoomInfo": ""
  },
  {
    "id": "M234",
    "行政区": "西贡区",
    "Location": [
      114.264645,
      22.314213
    ],
    "Name": "七重石滩",
    "Address": "香港西贡",
    "District": "西贡",
    "RoadInfo": "",
    "Poi": "",
    "RoomInfo": ""
  },
  {
    "id": "M235",
    "行政区": "沙田区",
    "Location": [
      114.203288,
      22.394984
    ],
    "Name": "稻乡饮食文化博物馆",
    "Address": "香港特别行政区沙田区沙田火炭禾穗街15-29号9楼",
    "District": "沙田区",
    "RoadInfo": "禾穗街15-29号",
    "Poi": "沙田火炭",
    "RoomInfo": "9楼"
  },
  {
    "id": "M236",
    "行政区": "南山区",
    "Location": [
      113.923552,
      22.528499
    ],
    "Name": "深圳湾公路大桥",
    "Address": "香港广东省深圳市南山区",
    "District": "南山区",
    "RoadInfo": "",
    "Poi": "",
    "RoomInfo": ""
  },
  {
    "id": "M237",
    "行政区": "大埔区",
    "Location": [
      114.336033,
      22.423961
    ],
    "Name": "麦理浩夫人度假村",
    "Address": "香港特别行政区西贡区西贡北潭路",
    "District": "西贡区西贡",
    "RoadInfo": "北潭路",
    "Poi": "",
    "RoomInfo": ""
  },
  {
    "id": "M238",
    "行政区": "屯门区",
    "Location": [
      113.96766,
      22.371895
    ],
    "Name": "屯門海濱花園",
    "Address": "香港特别行政区屯门区新界湖翠路1",
    "District": "屯门区新界",
    "RoadInfo": "湖翠路",
    "Poi": "",
    "RoomInfo": ""
  },
  {
    "id": "M239",
    "行政区": "油尖旺区",
    "Location": [
      114.179224,
      22.290564
    ],
    "Name": "鳄鱼潭",
    "Address": "香港岛黄竹坑香港海洋公园海滨乐园亚洲动物天地",
    "District": "市岛黄竹坑",
    "RoadInfo": "",
    "Poi": "香港海洋公园海滨乐园亚洲动物天地",
    "RoomInfo": ""
  },
  {
    "id": "M240",
    "行政区": "U",
    "Location": [
      114.163825,
      22.276284
    ],
    "Name": "西貢島橋咀",
    "Address": "香港特别行政区西贡区西貢島橋咀",
    "District": "西贡区西貢島橋咀",
    "RoadInfo": "",
    "Poi": "",
    "RoomInfo": ""
  },
  {
    "id": "M241",
    "行政区": "大埔区",
    "Location": [
      114.324287,
      22.445657
    ],
    "Name": "白沙澳村",
    "Address": "香港西贡白沙澳村",
    "District": "西贡白沙澳村",
    "RoadInfo": "",
    "Poi": "",
    "RoomInfo": ""
  },
  {
    "id": "M242",
    "行政区": "离岛区",
    "Location": [
      114.118342,
      22.222109
    ],
    "Name": "香草园",
    "Address": "香港特别行政区离岛区南丫岛洪圣夜海滩旁边",
    "District": "离岛区南丫岛",
    "RoadInfo": "",
    "Poi": "洪圣夜海滩",
    "RoomInfo": ""
  },
  {
    "id": "M243",
    "行政区": "西贡区",
    "Location": [
      114.264645,
      22.314213
    ],
    "Name": "佛堂门天后古庙",
    "Address": "香港新界西贡大庙湾",
    "District": "西贡",
    "RoadInfo": "",
    "Poi": "大庙湾",
    "RoomInfo": ""
  },
  {
    "id": "M244",
    "行政区": "U",
    "Location": [
      114.163825,
      22.276284
    ],
    "Name": "永宁围",
    "Address": "香港沙头角公路",
    "District": "",
    "RoadInfo": "沙头角公路",
    "Poi": "",
    "RoomInfo": ""
  },
  {
    "id": "M245",
    "行政区": "U",
    "Location": [
      114.173355,
      22.320048
    ],
    "Name": "林边楼",
    "Address": "中国，香港",
    "District": "",
    "RoadInfo": "",
    "Poi": "",
    "RoomInfo": ""
  },
  {
    "id": "M246",
    "行政区": "西贡区",
    "Location": [
      114.264645,
      22.314213
    ],
    "Name": "佛堂門天后古廟",
    "Address": "香港新界西貢大廟灣",
    "District": "西貢",
    "RoadInfo": "",
    "Poi": "大廟灣",
    "RoomInfo": ""
  },
  {
    "id": "M247",
    "行政区": "离岛区",
    "Location": [
      114.0461,
      22.308832
    ],
    "Name": "分流砲台",
    "Address": "香港新界大屿山分流半岛",
    "District": "大屿山",
    "RoadInfo": "",
    "Poi": "分流半岛",
    "RoomInfo": ""
  },
  {
    "id": "M248",
    "行政区": "湾仔区",
    "Location": [
      114.189409,
      22.278213
    ],
    "Name": "岳王古庙",
    "Address": "香港銅鑼灣電氣道",
    "District": "",
    "RoadInfo": "銅鑼灣電氣道",
    "Poi": "",
    "RoomInfo": ""
  },
  {
    "id": "M249",
    "行政区": "湾仔区",
    "Location": [
      114.189411,
      22.272828
    ],
    "Name": "圣玛加利教堂",
    "Address": "跑马地乐活道2号A",
    "District": "",
    "RoadInfo": "乐活道2号",
    "Poi": "",
    "RoomInfo": ""
  },
  {
    "id": "M250",
    "行政区": "中西区",
    "Location": [
      114.148369,
      22.271431
    ],
    "Name": "艾普当代艺术",
    "Address": "香港上环太平山28号",
    "District": "上环",
    "RoadInfo": "太平山28号",
    "Poi": "",
    "RoomInfo": ""
  },
  {
    "id": "M251",
    "行政区": "中西区",
    "Location": [
      114.161063,
      22.278163
    ],
    "Name": "全息偶像演唱体验馆",
    "Address": "香港中环威灵顿街2-8号威灵顿广场",
    "District": "中环",
    "RoadInfo": "威灵顿街2-8号",
    "Poi": "威灵顿广场",
    "RoomInfo": ""
  },
  {
    "id": "M252",
    "行政区": "大埔区",
    "Location": [
      114.174797,
      22.443776
    ],
    "Name": "绿汇学苑",
    "Address": "香港大埔运头角里11号",
    "District": "大埔",
    "RoadInfo": "运头角里11号",
    "Poi": "",
    "RoomInfo": ""
  },
  {
    "id": "M253",
    "行政区": "北区",
    "Location": [
      114.127627,
      22.507227
    ],
    "Name": "双鱼河休憩处",
    "Address": "香港特别行政区北区上水",
    "District": "北区",
    "RoadInfo": "",
    "Poi": "上水",
    "RoomInfo": ""
  },
  {
    "id": "M254",
    "行政区": "九龙城区",
    "Location": [
      114.193721,
      22.305985
    ],
    "Name": "香港金至尊旅游展览厅",
    "Address": "中国红磡民裕街36号GA",
    "District": "红磡",
    "RoadInfo": "民裕街36号",
    "Poi": "",
    "RoomInfo": ""
  },
  {
    "id": "M255",
    "行政区": "湾仔区",
    "Location": [
      114.182915,
      22.276389
    ],
    "Name": "香港小马山",
    "Address": "香港特别行政区湾仔区",
    "District": "湾仔区",
    "RoadInfo": "",
    "Poi": "",
    "RoomInfo": ""
  },
  {
    "id": "M256",
    "行政区": "中西区",
    "Location": [
      114.166228,
      22.256814
    ],
    "Name": "阿伯丁港口",
    "Address": "中国香港香港岛南麓",
    "District": "",
    "RoadInfo": "",
    "Poi": "南麓",
    "RoomInfo": ""
  },
  {
    "id": "M257",
    "行政区": "北区",
    "Location": [
      114.14198,
      22.489261
    ],
    "Name": "观宗寺",
    "Address": "香港特别行政区香港特别行政区北区粉岭置福围12号",
    "District": "北区粉岭置福围",
    "RoadInfo": "",
    "Poi": "",
    "RoomInfo": "12号"
  },
  {
    "id": "M258",
    "行政区": "U",
    "Location": [
      null,
      null
    ],
    "Name": "嘉图现代艺术画廊",
    "Address": "特别行政区中西区31C-D Wyndham St Central 2nd fl",
    "District": "",
    "RoadInfo": "",
    "Poi": "中西区31C-D Wyndham St Ce",
    "RoomInfo": ""
  }
]